ID,Name,City,Country,IATA/FAA,ICAO,Latitude,Longitude,Altitude,Timezone,DST,CityPopulation, AIRPORTS with IATA and ICAO codes, http://openflights.org/data.html, 
1,"Tokyo Intl","Tokyo","Japan","HND","RJTT",35.552258,139.779694,35,9,"U",23620000
2,"John F Kennedy Intl","New York","United States","JFK","KJFK",40.639751,-73.778925,13,-5,"A",16472000
3,"Incheon Intl","Seoul","South Korea","ICN","RKSI",37.469075,126.450517,23,9,"U",15850000
4,"Congonhas","Sao Paulo","Brazil","CGH","SBSP",-23.626692,-46.655375,2631,-3,"S",15175000
5,"Osaka Intl","Osaka","Japan","ITM","RJOO",34.785528,135.438222,50,9,"U",15040000
6,"Licenciado Benito Juarez Intl","Mexico City","Mexico","MEX","MMMX",19.436303,-99.072097,7316,-6,"S",14100000
7,"Moscow-Domodedovo","Moscow","Russia","BKA","UUDD",55.4,37.9,427,4,"N",13100000
8,"London-Heathrow","London","United Kingdom","LHR","EGLL",51.505278,0.055278,19,0,"E",11100000
9,"Netaji Subhash Chandra Bose Intl","Kolkata","India","CCU","VECC",22.654739,88.446722,16,5.5,"N",11100000
10,"Ministro Pistarini","Buenos Aires","Argentina","EZE","SAEZ",-34.822222,-58.535833,67,-3,"N",10750000
11,"Santos Dumont","Rio de Janeiro","Brazil","SDU","SBRJ",-22.910461,-43.163133,11,-3,"S",10150000
12,"Chhatrapati Shivaji Intl","Mumbai","India","BOM","VABB",19.088686,72.867919,37,5.5,"N",9950000
13,"Paris-Orly","Paris","France","ORY","LFPO",48.725278,2.359444,291,1,"E",9775000
14,"Whiteman Airport","Los Angeles","United States","WHP","KWHP",34.2593253,-118.4134331,1003,-8,"A",9763600
15,"Cairo Intl","Cairo","Egypt","CAI","HECA",30.121944,31.405556,382,2,"U",9300000
16,"Hongqiao Intl","Shanghai","China","SHA","ZSSS",31.197875,121.336319,10,8,"U",9300000
17,"Soekarno Hatta Intl","Jakarta","Indonesia","CGK","WIII",-6.125567,106.655897,34,7,"N",8600000
18,"Meigs Field","Chicago","United States","CGX","KCGX",41.860278,-87.609722,585,-6,"A",7717100
19,"Indira Gandhi Intl","Delhi","India","DEL","VIDP",28.5665,77.103088,777,5.5,"N",7200000
20,"Capital Intl","Beijing","China","PEK","ZBAA",40.080111,116.584556,116,8,"U",6450000
21,"Suvarnabhumi Intl","Bangkok","Thailand","BKK","VTBS",13.681108,100.747283,5,7,"U",6450000
22,"Mehrabad International Airport","Tehran","Iran","THR","OIII",35.416111,51.152222,3305,3.5,"E",6400000
23,"Sungshan","Taipei","Taiwan","TSA","RCSS",25.069722,121.5525,18,8,"U",6130000
24,"Pulkovo","Saint Petersburg","Russia","LED","ULLI",59.800292,30.262503,78,4,"N",5825000
25,"Ataturk","Istanbul","Turkey","IST","LTBA",40.976922,28.814606,163,2,"E",5750000
26,"Ninoy Aquino Intl","Manila","Philippines","MNL","RPLL",14.508647,121.019581,75,8,"N",5474000
27,"Jinnah Intl","Karachi","Pakistan","KHI","OPKC",24.906547,67.160797,100,5,"N",5300000
28,"Wings Field","Philadelphia","United States","BBX","KLOM",40.1375,-75.265,302,-5,"A",5208600
29,"Tegel","Berlin","Germany","TXL","EDDT",52.559686,13.287711,122,1,"E",5061248
30,"Binhai","Tianjin","China","TSN","ZBTJ",39.124353,117.346183,10,8,"U",4880000
31,"Nagoya Airport","Nagoya","Japan","NKM","RJGG",35.255,136.924,52,9,"U",4800000
32,"Coleman A Young Muni","Detroit","United States","DET","KDET",42.409195,-83.009861,626,-5,"A",4691900
33,"Torrejon","Madrid","Spain","TOJ","LETO",40.496747,-3.445872,2026,1,"E",4650000
34,"Chennai Intl","Madras","India","MAA","VOMM",12.994414,80.180517,52,5.5,"N",4475000
35,"Jorge Chavez Intl","Lima","Peru","LIM","SPIM",-12.021889,-77.114319,113,-5,"U",4344000
36,"Eldorado Intl","Bogota","Colombia","BOG","SKBO",4.701594,-74.146947,8361,-5,"U",4260000
37,"Arturo Merino Benitez Intl","Santiago","Chile","SCL","SCEL",-33.392975,-70.785803,1555,-4,"S",4100000
38,"San Francisco Intl","San Francisco","United States","SFO","KSFO",37.618972,-122.374889,13,-8,"A",4053800
39,"Barcelona","Barcelona","Spain","BCN","LEBL",41.297078,2.078464,12,1,"E",4040000
40,"General Edward Lawrence Logan Intl","Boston","United States","BOS","KBOS",42.364347,-71.005181,19,-5,"A",3971700
41,"Essen Mulheim","Essen","Germany","ESS","EDLE",51.402333,6.937333,424,1,"E",3867000
42,"Baghdad International Airport","Baghdad","Iraq","BGW","ORBI",33.262539,44.234578,114,3,"U",3841268
43,"Shenyang Taoxian International Airport","Shenyang","China","SHE","ZYTX",41.3824,123.2901,198,8,"U",3840000
44,"Murtala Muhammed","Lagos","Nigeria","LOS","DNMM",6.577369,3.321156,135,1,"N",3800000
45,"Malpensa","Milano","Italy","MXP","LIMC",45.630606,8.728111,767,1,"E",3750000
46,"Johannesburg Intl","Johannesburg","South Africa","JNB","FAJS",-26.139166,28.246,5558,2,"U",3650000
47,"Simon Bolivar Intl","Caracas","Venezuela","CCS","SVMI",10.603117,-66.990583,235,-4,"U",3600000
48,"Tianhe","Wuhan","China","WUH","ZHHH",30.783758,114.2081,113,8,"U",3490000
49,"Zia Intl","Dhaka","Bangladesh","DAC","VGZR",23.843333,90.397781,30,6,"U",3430312
50,"Lester B Pearson Intl","Toronto","Canada","YYZ","CYYZ",43.677223,-79.630556,569,-5,"A",3427168
51,"Sydney Intl","Sydney","Australia","SYD","YSSY",-33.946111,151.177222,21,10,"O",3364858
52,"Borg El Arab Intl","Alexandria","Egypt","HBE","HEBA",30.917669,29.696408,177,2,"U",3350000
53,"Washington Dulles Intl","Washington","United States","IAD","KIAD",38.944533,-77.455811,313,-5,"A",3221400
54,"Tansonnhat Intl","Ho Chi Minh City","Vietnam","SGN","VVTS",10.818797,106.651856,33,7,"U",3100000
55,"Baiyun Intl","Guangzhou","China","CAN","ZGGG",23.392436,113.298786,50,8,"U",3050000
56,"Eleftherios Venizelos Intl","Athens","Greece","ATH","LGAV",37.936358,23.944467,308,2,"E",3027331
57,"Allama Iqbal Intl","Lahore","Pakistan","LHE","OPLA",31.521564,74.403594,712,5,"N",3025000
58,"Seletar","Singapore","Singapore","XSP","WSSL",1.41695,103.867653,36,8,"N",3025000
59,"Tancredo Neves Intl","Belo Horizonte","Brazil","CNF","SBCF",-19.63375,-43.968856,2715,-3,"S",2950000
60,"Bangalore","Bangalore","India","BLR","VOBL",12.949986,77.668206,2912,5.5,"N",2950000
61,"St Hubert","Montreal","Canada","YHU","CYHU",45.5175,-73.416944,90,-5,"A",2921357
62,"Gostomel Antonov","Kiev","Ukraine","GML","UKKM",50.603611,30.191944,517,2,"E",2900000
63,"Melbourne Intl","Melbourne","Australia","MEL","YMML",-37.673333,144.843333,434,10,"O",2832893
64,"Opa Locka","Miami","United States","OPF","KOPF",25.907,-80.278389,8,-5,"A",2827300
65,"Manchester","Manchester","United Kingdom","MAN","EGCC",53.353744,-2.27495,257,0,"E",2775000
66,"David Wayne Hooks Field","Houston","United States","DWH","KDWH",30.063746,-95.554276,152,-6,"A",2755100
67,"Rajiv Gandhi","Hyderabad","India","HYD","VOHS",17.453117,78.467586,1742,5.5,"N",2750000
68,"Dallas Executive Airport","Dallas","United States","RBD","KRBD",32.680833,-96.868333,201,-6,"A",2727300
69,"Birmingham","Birmingham","United Kingdom","BHX","EGBB",52.453856,-1.748028,327,0,"E",2675000
70,"Taiping","Harbin","China","HRB","ZYHB",45.623403,126.250328,457,8,"U",2670000
71,"Guararapes Gilberto Freyre Intl","Recife","Brazil","REC","SBRF",-8.126794,-34.923039,33,-3,"S",2625000
72,"Salgado Filho","Porto Alegre","Brazil","POA","SBPA",-29.994428,-51.171428,11,-3,"S",2600000
73,"Ferihegy","Budapest","Hungary","BUD","LHBP",47.436933,19.255592,495,1,"E",2565000
74,"Mohammed V Intl","Casablanca","Morocco","CMN","GMMN",33.367467,-7.589967,656,0,"N",2475000
75,"Jiangbei","Chongqing","China","CKG","ZUCK",29.719217,106.641678,1365,8,"U",2450000
76,"Esenboga","Ankara","Turkey","ESB","LTAC",40.128082,32.995083,3125,2,"E",2400000
77,"Don Miguel Hidalgo Y Costilla Intl","Guadalajara","Mexico","GDL","MMGL",20.5218,-103.311167,5016,-6,"S",2325000
78,"Warszawa-Okecie","Warsaw","Poland","WAW","EPWA",52.451111,20.651667,341,1,"E",2323000
79,"Lukou","Nanjing","China","NKG","ZSNJ",31.742042,118.862025,49,8,"U",2290000
80,"Hamburg Finkenwerder","Hamburg","Germany","XFW","EDHI",53.535886,9.837025,22,1,"E",2225000
81,"Allegheny County Airport","Pittsburgh","United States","AGC","KAGC",40.3544,-79.9302,1252,-5,"A",2218800
82,"Hardwick Field Airport","Cleveland","United States","HDI","KHDI",35.2199994,-84.832369,874,-4,"A",2218400
83,"Daegu Ab","Taegu","South Korea","TAE","RKTN",35.894108,128.658856,116,9,"U",2206000
84,"Lambert St Louis Intl","St. Louis","United States","STL","KSTL",38.748697,-90.370028,618,-6,"A",2203000
85,"Jose Marti Intl","Havana","Cuba","HAV","MUHA",22.989153,-82.409086,210,-5,"U",2125000
86,"Brown Field Municipal Airport","San Diego","United States","SDM","KSDM",32.5722722,-116.9801611,526,-7,"A",2098500
87,"Olaya Herrera","Medellin","Colombia","EOH","SKMD",6.219958,-75.590519,4940,-5,"U",2095000
88,"Boeing Fld King Co Intl","Seattle","United States","BFI","KBFI",47.53,-122.301947,21,-8,"A",2077100
89,"Colombo Ratmalana","Colombo","Sri Lanka","RML","ICAO",6.821994,79.886208,22,6,"U",2050000
90,"Deputado Luis Eduardo Magalhaes","Salvador","Brazil","SSA","SBSV",-12.910994,-38.331044,64,-3,"S",2050000
91,"Nizhny Novgorod","Nizhniy Novgorod","Russia","GOJ","UWGG",56.230119,43.784042,256,4,"N",2025000
92,"Heydar Aliyev","Baku","Azerbaijan","GYD","UBBB",40.4675,50.046667,10,4,"E",2020000
93,"Del Norte Intl","Monterrey","Mexico","NTR","MMAN",25.865572,-100.237239,1476,-6,"S",2015000
94,"Minneapolis St Paul Intl","Minneapolis","United States","MSP","KMSP",44.881956,-93.221767,841,-6,"A",2012400
95,"Dekalb-Peachtree Airport","Atlanta","United States","PDK","KPDK",33.8756111,-84.3019722,1003,-4,"A",1962500
96,"Baltimore Washington Intl","Baltimore","United States","BWI","KBWI",39.175361,-76.668333,146,-5,"A",1960400
97,"Osnova International Airport","Kharkov","Ukraine","HRK","UKHH",49.924786,36.289986,508,2,"E",1940000
98,"New Chitose","Sapporo","Japan","CTS","RJCC",42.7752,141.692283,82,9,"U",1900000
99,"Kanpur","Kanpur","India","KNU","VIKA",26.441444,80.364864,411,5.5,"N",1875000
100,"Schwechat","Vienna","Austria","VIE","LOWW",48.110278,16.569722,600,1,"E",1875000
101,"Schiphol","Amsterdam","Netherlands","AMS","EHAM",52.308613,4.763889,-11,1,"E",1860000
102,"Damascus Intl","Damascus","Syria","DAM","OSDI",33.410636,36.514267,2020,2,"E",1850000
103,"Pinto Martins Intl","Fortaleza","Brazil","FOR","SBFZ",-3.776283,-38.532556,82,-3,"S",1825000
104,"Shuangliu","Chengdu","China","CTU","ZUUU",30.578528,103.947086,1625,8,"U",1810000
105,"Husein Sastranegara","Bandung","Indonesia","BDO","WICC",-6.900625,107.576294,2436,7,"N",1800000
106,"Glasgow","Glasgow","United Kingdom","GLA","EGPF",55.871944,-4.433056,26,0,"E",1800000
107,"Cape Town Intl","Cape Town","South Africa","CPT","FACT",-33.964806,18.601667,151,2,"U",1790000
108,"Luis Munoz Marin Intl","San Juan","Puerto Rico","SJU","TJSJ",18.439417,-66.001833,9,-4,"U",1775260
109,"Pune","Pune","India","PNQ","VAPO",18.582111,73.919697,1942,5.5,"N",1775000
110,"Koln HBF","Koln","Germany","KOX","KOLN",50.9425,6.958056,1000,1,"E",1760000
111,"Fukuoka","Fukuoka","Japan","FUK","RJFF",33.585942,130.450686,32,9,"U",1750000
112,"Afonso Pena","Curitiba","Brazil","CWB","SBCT",-25.528475,-49.175775,2988,-3,"S",1700000
113,"Zhoushuizi","Dalian","China","DLC","ZYTL",38.965667,121.5386,107,8,"U",1680000
114,"Rafic Hariri Intl","Beirut","Lebanon","BEY","OLBA",33.820931,35.488389,87,2,"E",1675000
115,"Wusu","Taiyuan","China","TYN","ZBYN",37.746897,112.628428,2575,8,"U",1660000
116,"Koltsovo","Yekaterinburg","Russia","SVX","USSS",56.743108,60.802728,764,6,"N",1620000
117,"Dnipropetrovsk Intl","Dnepropetrovsk","Ukraine","DNK","UKDD",48.357222,35.100556,481,2,"E",1600000
118,"Tolmachevo","Novosibirsk","Russia","OVB","UNNT",55.012622,82.650656,365,7,"N",1600000
119,"Hiroshima-Nishi","Hiroshima","Japan","HIW","RJBH",34.367,132.408,9,9,"N",1575000
120,"Presidente Juscelino Kubitschek","Brasilia","Brazil","BSB","SBBR",-15.8711,-47.918625,3479,-3,"S",1567709
121,"Torino","Torino","Italy","TRN","LIMF",45.200761,7.649631,989,1,"E",1550000
122,"Cigli","Izmir","Turkey","IGL","LTBL",38.513022,27.010053,16,2,"E",1550000
123,"Carrasco Intl","Montevideo","Uruguay","MVD","SUMU",-34.838417,-56.030806,105,-3,"S",1550000
124,"Durban Intl","Durban","South Africa","DUR","FADN",-29.970089,30.950519,33,2,"U",1550000
125,"Leeds Bradford","Leeds","United Kingdom","LBA","EGNM",53.865897,-1.660569,681,0,"E",1540000
126,"Liverpool","Liverpool","United Kingdom","LPL","EGGP",53.333611,-2.849722,80,0,"E",1525000
127,"Kurumoch","Samara","Russia","KBY","UWWW",53.504858,50.164336,477,6,"N",1505000
128,"Noibai Intl","Hanoi","Vietnam","HAN","VVNB",21.221192,105.807178,39,7,"U",1500000
129,"Buffalo Niagara Intl","Buffalo","United States","BUF","KBUF",42.940525,-78.732167,724,-5,"A",1483000
130,"Deer Valley Municipal Airport","Phoenix","United States","DVT","KDVT",33.4117,112.457,1478,-7,"A",1482400
131,"Cincinnati Northern Kentucky Intl","Cincinnati","United States","CVG","KCVG",39.048836,-84.667822,896,-5,"A",1480100
132,"Subang-Sultan Abdul Aziz Shah Intl","Kuala Lumpur","Malaysia","SZB","WMSA",3.130583,101.549333,90,8,"N",1475000
133,"Mashhad","Mashhad","Iran","MHD","OIMM",36.234,59.643,3263,3.5,"E",1463508
134,"Jinan","Jinan","China","TNA","ZSJN",36.857214,117.215992,76,8,"U",1460000
135,"Tbilisi","Tbilisi","Georgia","TBS","UGTB",41.669167,44.954722,1624,4,"N",1460000
136,"Luanda 4 De Fevereiro","Luanda","Angola","LAD","FNLU",-8.858375,13.231178,243,1,"N",1459900
137,"Skavsta","Stockholm","Sweden","NYO","ESKN",58.788636,16.912189,140,1,"E",1449972
138,"Leopold Sedar Senghor Intl","Dakar","Senegal","DKR","GOOY",14.739708,-17.490225,85,0,"N",1428084
139,"Kobe","Kobe","Japan","UKB","RJBE",34.632778,135.223889,22,9,"U",1410834
140,"Denver Intl","Denver","United States","DEN","KDEN",39.861656,-104.673178,5431,-7,"A",1405300
141,"Alfonso Bonilla Aragon Intl","Cali","Colombia","CLO","SKCL",3.543222,-76.381583,3162,-5,"U",1400000
142,"Shah Amanat Intl","Chittagong","Bangladesh","CGP","VGEG",22.249611,91.813286,12,6,"U",1391877
143,"Vancouver Coal Harbour","Vancouver","Canada","CXH","CAQ3",49.289722,-123.115833,0,-8,"A",1380729
144,"Lawrence J Timmerman Airport","Milwaukee","United States","MWC","KMWC",43.1103889,-88.0344167,745,-6,"A",1374700
145,"Polonia","Medan","Indonesia","MES","WIMM",3.558056,98.671722,114,7,"N",1373747
146,"Gumrak","Volgograd","Russia","VOG","URWW",48.782528,44.345544,482,4,"N",1360000
147,"Balandino","Chelyabinsk","Russia","CEK","USCC",55.305836,61.503333,769,6,"N",1325000
148,"Ruzyne","Prague","Czech Republic","PRG","LKPR",50.100833,14.26,1247,1,"E",1325000
149,"Las Americas Intl","Santo Domingo","Dominican Republic","SDQ","MDSD",18.429664,-69.668925,59,-4,"U",1313172
150,"Dr Ambedkar Intl","Nagpur","India","NAG","VANP",21.092192,79.047183,1033,5.5,"N",1302066
151,"Nairobi Wilson","Nairobi","Kenya","WIL","HKNW",-1.321719,36.814833,5546,3,"U",1286200
152,"Wujiaba","Kunming","China","KMG","ZPPP",24.992364,102.743536,6217,8,"U",1280000
153,"Bron","Lyon","France","LYN","LFLY",45.727172,4.944275,659,1,"E",1275000
154,"Downtown","Kansas City","United States","MKC","KMKC",39.1275,-94.598889,759,-6,"A",1272400
155,"Xiaoshan","Hangzhou","China","HGH","ZSHC",30.229503,120.434453,23,8,"U",1270000
156,"Valencia","Valencia","Spain","VLC","LEVC",39.489314,-0.481625,225,1,"E",1270000
157,"Lanzhou Airport","Lanzhou","China","LHW","ZLAN",36.117,103.617,0,8,"N",1270000
158,"Liuting","Qingdao","China","TAO","ZSQD",36.266108,120.374436,33,8,"U",1270000
159,"Jose Joaquin De Olmedo Intl","Guayaquil","Ecuador","GYE","SEGU",-2.157419,-79.883558,19,-5,"U",1255000
160,"Kotoka Intl","Accra","Ghana","ACC","DGAA",5.605186,-0.166786,205,0,"N",1250000
161,"Marka Intl","Amman","Jordan","ADJ","OJAM",31.972703,35.991569,2555,2,"E",1250000
162,"Portland Intl","Portland","United States","PDX","KPDX",45.588722,-122.5975,30,-8,"A",1227200
163,"Carthage","Tunis","Tunisia","TUN","DTTA",36.851033,10.227217,22,0,"E",1225000
164,"Provence","Marseille","France","MRS","LFML",43.435555,5.213611,74,1,"E",1225000
165,"Porto","Porto","Portugal","OPO","LPPR",41.248055,-8.681389,228,0,"E",1225000
166,"Aleppo Intl","Aleppo","Syria","ALP","OSAP",36.180675,37.224358,1276,2,"E",1216000
167,"Sofia","Sofia","Bulgaria","SOF","LBSF",42.695194,23.406167,1742,2,"E",1205000
168,"Val De Cans Intl","Belem","Brazil","BEL","SBBE",-1.37925,-48.476292,54,-3,"S",1200000
169,"Shijiazhuang Daguocun International Airport","Shijiazhuang","China","SJW","ZBSJ",38.280686,114.6973,233,8,"U",1190000
170,"Odesa Intl","Odessa","Ukraine","ODS","UKOO",46.426767,30.676464,172,2,"E",1185000
171,"New Orleans Nas Jrb","New Orleans","United States","NBG","KNBG",29.825333,-90.035,3,-6,"A",1185000
172,"Bagram AFB","Kabul","Afghanistan","BPM","OAIX",34.5646,69.1554,4895,4.5,"U",1179000
173,"Omsk","Omsk","Russia","OMS","UNOO",54.967042,73.310514,311,7,"N",1175000
174,"Xinzheng","Zhengzhou","China","CGO","ZHCC",34.519672,113.840889,495,8,"U",1170000
175,"Qiqihar Sanjiazi Airport","Qiqihar","China","NDG","ZYQQ",47.239628,123.918131,477,8,"U",1150000
176,"Brisbane Intl","Brisbane","Australia","BNE","YBBN",-27.384167,153.1175,13,10,"N",1149401
177,"Ibadan","Ibadan","Nigeria","IBA","DNIB",7.362458,3.978333,725,1,"N",1144000
178,"Dublin","Dublin","Ireland","DUB","EIDW",53.421333,-6.270075,242,0,"E",1140000
179,"Ernesto Cortissoz","Barranquilla","Colombia","BAQ","SKBQ",10.889589,-74.780819,98,-5,"U",1140000
180,"Baotou Airport","Baotou","China","BAV","ZBOW",40.56,109.997,3321,8,"U",1120000
181,"Rotterdam","Rotterdam","Netherlands","RTM","EHRD",51.956944,4.437222,-15,1,"E",1110000
182,"Faisalabad Intl","Faisalabad","Pakistan","LYP","OPFA",31.365014,72.994842,591,5,"N",1104209
183,"Ufa","Ufa","Russia","UFA","UWUU",54.557511,55.874417,449,6,"N",1100000
184,"Ambrosio L V Taravella","Cordoba","Argentina","COR","SACO",-31.323619,-64.207953,1604,-3,"N",1070000
185,"Maputo","Maputo","Mozambique","MPM","FQMA",-25.920836,32.572606,145,2,"U",1069727
186,"Base Aerea De Santos","Santos","Brazil","SSZ","SBST",-23.925206,-46.2875,10,-3,"S",1065000
187,"L?dz Wladyslaw Reymont Airport","Lodz","Poland","LCJ","EPLL",51.721881,19.398133,604,1,"E",1061000
188,"Lucknow","Lucknow","India","LKO","VILK",26.760594,80.889339,410,5.5,"N",1060000
189,"Mariscal Sucre Intl","Quito","Ecuador","UIO","SEQU",-0.141144,-78.488214,9228,-5,"U",1050000
190,"Rosario","Rosario","Argentina","ROS","SAAR",-32.903611,-60.785,85,-3,"N",1045000
191,"Diwopu","Urumqi","China","URC","ZWWW",43.907106,87.474244,2125,8,"U",1040000
192,"El Paso Intl","El Paso","United States","ELP","KELP",31.80725,-106.377583,3958,-7,"A",1037700
193,"Changbei Intl","Nanchang","China","KHN","ZSCN",28.865,115.9,143,8,"U",1030000
194,"Douala","Douala","Cameroon","DLA","FKKD",4.006081,9.719481,33,1,"N",1029731
195,"Jaipur","Jaipur","India","JAI","VIJP",26.824192,75.812161,1263,5.5,"N",1025000
196,"Achmad Yani","Semarang","Indonesia","SRG","WARS",-6.971447,110.374122,13,7,"N",1024940
197,"Lesquin","Lille","France","LIL","LFQQ",50.561942,3.089444,157,1,"E",1020000
198,"Longdongbao","Guiyang","China","KWE","ZUGY",26.538522,106.800703,3736,8,"U",1010000
199,"Riga Intl","Riga","Latvia","RIX","EVRA",56.923611,23.971111,34,2,"E",1005000
200,"Perth Intl","Perth","Australia","PER","YPPH",-31.940278,115.966944,67,8,"N",994472
201,"El Alto Intl","La Paz","Bolivia","LPB","SLLP",-16.513339,-68.192256,13325,-4,"U",992592
202,"Mitiga Airport","Tripoli","Libya","MJI","HLLM",32.8941,13.276,36,1,"N",990697
203,"Santa Genoveva","Goiania","Brazil","GYN","SBGO",-16.632033,-49.220686,2450,-3,"S",990000
204,"Bilbao","Bilbao","Spain","BIO","LEBB",43.301097,-2.910608,138,1,"E",985000
205,"Sale","Rabat","Morocco","RBA","GMME",34.051467,-6.751519,276,0,"N",980000
206,"Adelaide Intl","Adelaide","Australia","ADL","YPAD",-34.945,138.530556,20,9.5,"O",977721
207,"Tabriz Intl","Tabriz","Iran","TBZ","OITT",38.133889,46.235,4459,4,"E",971482
208,"San Antonio Intl","San Antonio","United States","SAT","KSAT",29.533694,-98.469778,809,-6,"A",968200
209,"Ohio State University Airport","Columbus","United States","OSU","KOSU",40.0798,-83.073,905,-5,"U",963600
210,"Madurai","Madurai","India","IXM","VOMD",9.834508,78.093378,459,5.5,"N",960000
211,"Wonderboom","Pretoria","South Africa","PRY","FAWB",-25.653858,28.224231,4095,2,"U",960000
212,"Moron Ab","Sevilla","Spain","OZP","LEMO",37.174917,-5.615944,285,1,"E",945000
213,"Khartoum","Khartoum","Sudan","KRT","HSSS",15.589497,32.553161,1265,2,"U",924000
214,"El Salvador Intl","San Salvador","El Salvador","SAL","MSLP",13.440947,-89.055728,101,-6,"U",920000
215,"Lech Walesa","Gdansk","Poland","GDN","EPGD",54.377569,18.466222,489,1,"E",909000
216,"Hernesaari Heliport","Helsinki","Finland","HEN","EFHE",60.1478,24.9244,7,2,"E",900000
217,"La Chinita Intl","Maracaibo","Venezuela","MAR","SVMC",10.558208,-71.727856,235,-4,"U",890643
218,"Harare Intl","Harare","Zimbabwe","HRE","FVHA",-17.931806,31.092847,4887,2,"U",890000
219,"Changle","Fuzhou","China","FOC","ZSFZ",25.935064,119.663272,46,8,"U",890000
220,"Sacramento Intl","Sacramento","United States","SMF","KSMF",38.695417,-121.590778,27,-8,"A",866400
221,"Memphis Intl","Memphis","United States","MEM","KMEM",35.042417,-89.976667,341,-6,"A",852900
222,"Auckland Intl","Auckland","New Zealand","AKL","NZAA",-37.008056,174.791667,23,12,"Z",850000
223,"Shiraz Shahid Dastghaib Intl","Shiraz","Iran","SYZ","OISS",29.539242,52.589786,4920,4,"E",848289
224,"Balice","Krakow","Poland","KRK","EPKK",50.077731,19.784836,791,1,"E",828000
225,"Ottawa Macdonald Cartier Intl","Ottawa","Canada","YOW","CYOW",45.3225,-75.669167,374,-5,"A",819263
226,"Rochester","Rochester","United States","RST","KRST",43.908283,-92.500014,1317,-6,"A",816200
227,"Eduardo Gomes Intl","Manaus","Brazil","MAO","SBEG",-3.038611,-60.049721,264,-4,"S",809914
228,"Hyderabad Airport","Hyderabad","Pakistan","HDD","OPKD",25.3181,68.3661,130,5,"N",800000
229,"Neuenland","Bremen","Germany","BRE","EDDW",53.0475,8.786667,14,1,"E",800000
230,"Conakry","Conakry","Guinea","CKY","GUCY",9.576889,-13.611961,72,0,"N",800000
231,"Norfolk Ns","Norfolk","United States","NGU","KNGU",36.937644,-76.289289,15,-5,"A",795600
232,"Lviv Intl","Lvov","Ukraine","LWO","UKLL",49.8125,23.956111,1071,2,"E",790000
233,"Sultan Mahmud Badaruddin Ii","Palembang","Indonesia","PLM","WIPP",-2.89825,104.699903,49,7,"N",786607
234,"Edmonton Intl","Edmonton","Canada","YEG","CYEG",53.309723,-113.579722,2373,-7,"A",785465
235,"Adana","Adana","Turkey","ADA","LTAF",36.982166,35.280388,65,2,"E",777554
236,"Norman Manley Intl","Kingston","Jamaica","KIN","MKJP",17.935667,-76.7875,10,-5,"U",770000
237,"Honolulu Intl","Honolulu","United States","HNL","PHNL",21.318681,-157.922428,13,-10,"N",762600
238,"Liege","Liege","Belgium","LGG","EBLG",50.637417,5.443222,659,1,"E",750000
239,"Will Rogers World","Oklahoma City","United States","OKC","KOKC",35.393089,-97.600733,1295,-6,"A",742000
240,"Luoyang Airport","Luoyang","China","LYA","ZHLY",34.41,112.28,210,8,"U",740000
241,"Palermo","Palermo","Italy","PMO","LICJ",38.175958,13.091019,65,1,"E",723732
242,"Gardermoen","Oslo","Norway","OSL","ENGM",60.193917,11.100361,681,1,"E",720000
243,"Makedonia","Thessaloniki","Greece","SKG","LGTS",40.519725,22.97095,22,2,"E",706180
244,"Silvio Pettirossi Intl","Asuncion","Paraguay","ASU","SGAS",-25.23985,-57.519133,292,-4,"S",700000
245,"Leipzig Halle","Leipzig","Germany","LEJ","EDDP",51.432447,12.241633,465,1,"E",700000
246,"Zagreb","Zagreb","Croatia","ZAG","LDZA",45.742931,16.068778,353,1,"E",697925
247,"Port Elizabeth Intl","Port Elizabeth","South Africa","PLZ","FAPE",-33.984919,25.617275,226,2,"U",690000
248,"Belfast Intl","Belfast","United Kingdom","BFS","EGAA",54.6575,-6.215833,268,0,"E",685000
249,"Salt Lake City Intl","Salt Lake City","United States","SLC","KSLC",40.788389,-111.977772,4227,-7,"A",682400
250,"Managua Intl","Managua","Nicaragua","MGA","MNMG",12.141494,-86.168178,194,-6,"U",682000
251,"Carriel Sur Intl","Concepcion","Chile","CCP","SCIE",-36.77265,-73.063106,26,-4,"S",675000
252,"Calgary Intl","Calgary","Canada","YYC","CYYC",51.113888,-114.020278,3557,-7,"A",671326
253,"Dresden","Dresden","Germany","DRS","EDDC",51.132767,13.767161,755,1,"E",670000
254,"Juan Santamaria Intl","San Jose","Costa Rica","SJO","MROC",9.993861,-84.208806,3021,-6,"U",670000
255,"Ivato","Antananarivo","Madagascar","TNR","FMMI",-18.79695,47.478806,4198,3,"U",663000
256,"Yaounde Nsimalen","Yaounde","Cameroon","NSI","FKYS",3.722556,11.553269,2278,1,"N",653670
257,"El Plumerillo","Mendoza","Argentina","MDZ","SAME",-32.831717,-68.792856,2310,-3,"N",650000
258,"Knevichi","Vladivostok","Russia","VVO","UHWW",43.398953,132.148017,46,11,"N",648000
259,"Senou","Bamako","Mali","BKO","GABS",12.533544,-7.949944,1247,0,"N",646163
260,"Strachowice","Wroclaw","Poland","WRO","EPWR",51.102683,16.885836,404,1,"E",640200
261,"Merignac","Bordeaux","France","BOD","LFBD",44.828335,-0.715556,162,1,"E",640012
262,"Cecil Field","Jacksonville","United States","NZC","KVQQ",30.2187,-81.8767,81,-5,"A",635900
263,"Edinburgh","Edinburgh","United Kingdom","EDI","EGPH",55.95,-3.3725,135,0,"E",630000
264,"Norman Y Mineta San Jose Intl","San Jose","United States","SJC","KSJC",37.3626,-121.929022,62,-8,"A",629400
265,"Es Senia","Oran","Algeria","ORN","DAOO",35.623858,-0.621183,295,1,"N",628558
266,"Irkutsk","Irkutsk","Russia","IKT","UIII",52.268028,104.388975,1675,9,"N",626000
267,"Winnipeg St Andrews","Winnipeg","Canada","YAV","CYAV",50.056389,-97.0325,760,-6,"A",625304
268,"Marcos A Gelabert Intl","Panama","Panama","PAC","MPMG",8.973339,-79.555583,31,-5,"U",625000
269,"Cardiff","Cardiff","United Kingdom","CWL","EGFF",51.396667,-3.343333,220,0,"E",625000
270,"Arturo Michelena Intl","Valencia","Venezuela","VLN","SVVA",10.149733,-67.9284,1417,-4,"U",616224
271,"Sary-Arka","Karaganda","Kazakhstan","KGF","UAKK",49.670833,73.334444,1765,5,"U",614000
272,"Vishakhapatnam","Vishakhapatnam","India","VTZ","VEVZ",17.721167,83.224483,15,6,"N",603630
273,"Quebec Jean Lesage Intl","Quebec","Canada","YQB","CYQB",46.791111,-71.393333,244,-5,"A",603267
274,"Novy","Khabarovsk","Russia","KHV","UHHH",48.528044,135.188361,244,11,"N",601000
275,"Spichenkovo Airport","Novokuznetsk","Russia","NOZ","UNWW",53.8114,86.8772,1024,8,"N",600000
276,"Marechal Cunha Machado Intl","Sao Luis","Brazil","SLZ","SBSL",-2.585361,-44.234139,178,-3,"S",600000
277,"Amritsar","Amritsar","India","ATQ","VIAR",31.709594,74.797264,756,5.5,"N",594844
278,"Macdill Afb","Tampa","United States","MCF","KMCF",27.849339,-82.521214,14,-5,"A",594500
279,"Vilnius Intl","Vilnius","Lithuania","VNO","EYVI",54.634133,25.285767,646,2,"E",582000
280,"Zaragoza Ab","Zaragoza","Spain","ZAZ","LEZG",41.666242,-1.041553,863,1,"E",575317
281,"Mosul International Airport","Mosul","Iraq","OSB","ORBM",36.305833,43.1475,719,4,"U",570926
282,"Dortmund","Dortmund","Germany","DTM","EDLW",51.518314,7.612242,425,1,"E",568164
283,"Toncontin Intl","Tegucigalpa","Honduras","TGU","MHTG",14.060883,-87.217197,3294,-6,"U",551606
284,"Blagnac","Toulouse","France","TLS","LFBO",43.629075,1.363819,499,1,"E",541271
285,"Mallam Aminu Intl","Kano","Nigeria","KAN","DNKN",12.047589,8.524622,1562,1,"N",538300
286,"Lusaka Intl","Lusaka","Zambia","LUN","FLLS",-15.330817,28.452628,3779,2,"U",535830
287,"Menara","Marrakech","Morocco","RAK","GMMX",31.606886,-8.0363,1545,0,"N",535000
288,"Saiss","Fes","Morocco","FEZ","GMFF",33.927261,-4.977958,1900,0,"N",535000
289,"Mandalay Intl","Mandalay","Burma","MDL","VYMD",21.702156,95.977928,300,6.5,"U",532895
290,"Hastings Airport","Freetown","Sierra Leone","HGS","GFHA",8.39713,-13.1291,60,0,"N",525000
291,"Augusto Severo","Natal","Brazil","NAT","SBNT",-5.911417,-35.247717,169,-3,"S",510106
292,"Astrakhan","Astrakhan","Russia","ASF","URWA",46.283333,48.006278,-65,6,"N",509000
293,"Barquisimeto Intl","Barquisimeto","Venezuela","BRM","SVBM",10.042747,-69.358619,2042,-4,"U",497635
294,"Charlotte Douglas Intl","Charlotte","United States","CLT","KCLT",35.214,-80.943139,748,-5,"A",479200
295,"Bangui M Poko","Bangui","Central African Republic","BGF","FEFF",4.398475,18.518786,1208,1,"N",473817
296,"Murmansk","Murmansk","Russia","MMK","ULMM",68.781672,32.750822,266,4,"N",468000
297,"Monrovia Roberts Intl","Monrovia","Liberia","ROB","GLRB",6.233789,-10.362311,31,0,"N",465000
298,"Nantes Atlantique","Nantes","France","NTE","LFRS",47.153189,-1.610725,90,1,"E",464857
299,"Turany","Brno","Czech Republic","BRQ","LKTB",49.151269,16.694433,778,1,"E",450000
300,"Nagasaki","Nagasaki","Japan","NGS","RJFU",32.916944,129.913611,15,9,"U",449382
301,"Rodriguez Ballon","Arequipa","Peru","AQP","SPQU",-16.341072,-71.583083,8405,-5,"U",446942
302,"Skopje","Skopje","Macedonia","SKP","LWSK",41.961622,21.621381,781,1,"E",444900
303,"Mombasa Moi Intl","Mombasa","Kenya","MBA","HKMO",-4.034833,39.59425,200,3,"U",442369
304,"M R Stefanik","Bratislava","Slovakia","BTS","LZIB",48.170167,17.212667,436,1,"E",435499
305,"General Francisco Javier Mina Intl","Tampico","Mexico","TAM","MMTM",22.29645,-97.865931,80,-6,"S",435000
306,"Sanaa Intl","Sanaa","Yemen","SAH","OYSN",15.476258,44.219739,7216,3,"U",427150
307,"Talagi","Arkhangelsk","Russia","ARH","ULAA",64.360281,40.430167,19,4,"N",416000
308,"J M Nkomo Intl","Bulawayo","Zimbabwe","BUQ","FVBU",-20.017431,28.617869,4359,2,"U",413814
309,"Francisco Bangoy International","Davao","Philippines","DVO","RPMD",7.125522,125.645778,59,8,"N",408775
310,"Newcastle Airport","Newcastle","Australia","NTL","YWLM",-32.78,151.83,31,10,"O",405089
311,"Licenciado Manuel Crescencio Rejon Int","Merida","Mexico","MID","MMMD",20.936981,-89.657672,38,-6,"S",400142
312,"Entzheim","Strasbourg","France","SXB","LFST",48.538319,7.628233,505,1,"E",400000
313,"Gnassingbe Eyadema Intl","Lome","Togo","LFW","DXXX",6.165611,1.254511,72,1,"N",400000
314,"Diori Hamani","Niamey","Niger","NIM","DRRN",13.481547,2.183614,732,1,"N",398265
315,"Ashgabat","Ashkhabad","Turkmenistan","ASB","UTAA",37.986814,58.360967,692,5,"U",398000
316,"Cat Bi International Airport","Haiphong","Vietnam","HPH","VVCI",20.819386,106.724989,6,7,"U",385210
317,"Wattay Intl","Vientiane","Laos","VTE","VLVT",17.988322,102.563256,564,7,"U",377409
318,"Capitan Carlos Martinez De Pinillos","Trujillo","Peru","TRU","SPRU",-8.081411,-79.108761,106,-5,"U",354301
319,"Wellington Intl","Wellington","New Zealand","WLG","NZWN",-41.327221,174.805278,41,12,"Z",350000
320,"Sarajevo","Sarajevo","Bosnia and Herzegovina","SJJ","LQSA",43.824583,18.331467,1708,1,"E",341200
321,"Linz","Linz","Austria","LNZ","LOWL",48.233219,14.187511,978,1,"E",335000
322,"Newark Liberty Intl","Newark","United States","EWR","KEWR",40.6925,-74.168667,18,-5,"A",329248
323,"Graz","Graz","Austria","GRZ","LOWG",46.991067,15.439628,1115,1,"E",325000
324,"Tribhuvan Intl","Kathmandu","Nepal","KTM","VNKT",27.696583,85.3591,4390,5.75,"N",320000
325,"Christchurch Intl","Christchurch","New Zealand","CHC","NZCH",-43.489358,172.532225,123,12,"Z",320000
326,"East London","East London","South Africa","ELS","FAEL",-33.035569,27.825939,435,2,"U",320000
327,"Aden Intl","Aden","Yemen","ADE","OYAA",12.829542,45.028792,7,3,"U",318000
328,"Doha Intl","Doha","Qatar","DOH","OTBD",25.261125,51.565056,35,4,"U",310000
329,"Thyna","Sfax","Tunisia","SFA","DTTX",34.717953,10.690972,85,0,"E",310000
330,"Mangalore","Mangalore","India","IXE","VOML",12.961267,74.890069,337,5.5,"N",306078
331,"Elmas","Cagliari","Italy","CAG","LIEE",39.251469,9.054283,13,1,"E",305000
332,"General Juan N Alvarez Intl","Acapulco","Mexico","ACA","MMAA",16.757061,-99.753953,16,-6,"S",301902
333,"Bern Belp","Bern","Switzerland","BRN","LSZB",46.9141,7.497153,1674,1,"E",298800
334,"Minangkabau","Padang","Indonesia","PDG","WIPT",-0.874989,100.351881,9,7,"N",296675
335,"Halifax Intl","Halifax","Canada","YHZ","CYHZ",44.880833,-63.50861,477,-4,"A",295990
336,"Aomori","Aomori","Japan","AOJ","RJSA",40.734722,140.690833,664,9,"U",294045
337,"Sauce Viejo","Santa Fe","Argentina","SFN","SAAV",-31.711666,-60.811668,56,-3,"N",292165
338,"Beira","Beira","Mozambique","BEW","FQBR",-19.796419,34.907556,33,2,"U",291604
339,"Zahedan Intl","Zahedan","Iran","ZAH","OIZH",29.475686,60.906189,4564,4,"E",281923
340,"Marechal Rondon","Cuiaba","Brazil","CGB","SBCY",-15.652931,-56.116719,617,-4,"S",279651
341,"Capt Jose A Quinones Gonzales Intl","Chiclayo","Peru","CIX","SPHI",-6.787475,-79.828097,97,-5,"U",279527
342,"Asmara Intl","Asmara","Eritrea","ASM","HHAS",15.291853,38.910667,7661,3,"U",275385
343,"Bujumbura Intl","Bujumbura","Burundi","BJM","HBBA",-3.324019,29.318519,2582,2,"U",273000
344,"Canberra","Canberra","Australia","CBR","YSCB",-35.306944,149.195,1886,10,"O",271362
345,"Victoria Inner Harbour Airport","Victoria","Canada","YWH","CYWH",48.422778,-123.3875,0,-8,"A",255547
346,"Octeville","Le Havre","France","LEH","LFOH",49.533889,0.088056,312,1,"E",254595
347,"Enugu","Enugu","Nigeria","ENU","DNEN",6.474272,7.561961,466,1,"N",252500
348,"Erzurum","Erzurum","Turkey","ERZ","LTCE",39.956501,41.170166,5763,2,"E",246053
349,"Zorg en Hoop Airport","Paramaribo","Suriname","ORG","SMZO",5.81108,-55.1907,10,-3,"U",241000
350,"Samsun-?arsamba Airport","Samsun","Turkey","SZF","LTFH",41.2545,36.5671,18,2,"E",240674
351,"Flesland","Bergen","Norway","BGO","ENBR",60.293386,5.218142,170,1,"E",239000
352,"Leon M Ba","Libreville","Gabon","LBV","FOOL",0.4586,9.412283,39,1,"N",235700
353,"Bloemfontein Intl","Bloemfontein","South Africa","BFN","FABL",-29.092722,26.302444,4458,2,"U",235000
354,"Kamuzu Intl","Lilongwe","Malawi","LLW","FWKI",-13.789378,33.781,4035,2,"U",233973
355,"Yazd Shahid Sadooghi","Yazd","Iran","AZD","OIYY",31.904908,54.276503,4054,4,"E",230483
356,"Santarem","Santarem","Brazil","STM","SBSN",-2.422431,-54.792789,198,-4,"S",226618
357,"Comandante Espora","Bahia Blanca","Argentina","BHI","SAZB",-38.724967,-62.169317,246,-3,"N",223818
358,"Teniente Jaime A De Montreuil Morales","Chimbote","Peru","CHM","SPEO",-9.149614,-78.52385,69,-5,"U",223341
359,"Resistencia","Resistencia","Argentina","RES","SARE",-27.449986,-59.056125,173,-3,"N",220104
360,"Salzburg","Salzburg","Austria","SZG","LOWS",47.793304,13.004333,1411,1,"E",220000
361,"Sam Ratulangi","Manado","Indonesia","MDC","WAMM",1.549447,124.925878,264,8,"N",217091
362,"Sepinggan","Balikpapan","Indonesia","BPN","WALL",-1.268272,116.894478,12,8,"N",208040
363,"Chaklala","Islamabad","Pakistan","ISB","OPRN",33.616653,73.099233,1668,5,"N",204364
364,"Huambo","Huambo","Angola","NOV","FNHU",-12.808878,15.760547,5587,1,"N",203000
365,"Governador Jorge Teixeira De Oliveira","Porto Velho","Brazil","PVH","SBPV",-8.709294,-63.902281,294,-4,"S",202011
366,"Saskatoon J G Diefenbaker Intl","Saskatoon","Canada","YXE","CYXE",52.170834,-106.699722,1653,-6,"N",200665
367,"General Rafael Buelna Intl","Mazatlan","Mexico","MZT","MMMZ",23.161356,-106.266072,38,-7,"S",199830
368,"Aswan Intl","Aswan","Egypt","ASW","HESN",23.964356,32.819975,662,2,"U",191461
369,"Ogle","Georgetown","Guyana","OGL","SYGO",6.806944,-58.104444,10,-4,"U",188000
370,"Yakutsk","Yakutsk","Russia","YKS","UEEE",62.09325,129.770672,325,10,"N",187000
371,"Regina Intl","Regina","Canada","YQR","CYQR",50.431944,-104.665833,1894,-6,"N",186521
372,"Cerro Moreno Intl","Antofagasta","Chile","ANF","SCFA",-23.444478,-70.4451,455,-4,"S",185486
373,"Ercan International Airport","Nicosia","Cyprus","ECN","LCEN",35.1547,33.4961,404,2,"E",185000
374,"Innsbruck","Innsbruck","Austria","INN","LOWI",47.260219,11.343964,1906,1,"E",185000
375,"Teniente Alejandro Velasco Astete Intl","Cuzco","Peru","CUZ","SPZO",-13.535722,-71.938781,10860,-5,"U",184550
376,"Lake Hood Seaplane Base","Anchorage","United States","LHD","PALH",61.1866382,-149.9653918,71,8,"A",184300
377,"Kigali Intl","Kigali","Rwanda","KGL","HRYR",-1.968628,30.13945,4859,2,"U",181600
378,"Coronel Francisco Secada Vignetta Intl","Iquitos","Peru","IQT","SPQT",-3.784739,-73.308806,306,-5,"U",178738
379,"Hobart","Hobart","Australia","HBA","YMHB",-42.836111,147.510278,13,10,"O",175082
380,"Herat","Herat","Afghanistan","HEA","OAHR",34.210017,62.2283,3206,5,"U",160000
381,"Benguela","Benguela","Angola","BUG","FNBG",-12.609025,13.403711,118,1,"N",155000
382,"Araxos","Patras","Greece","GPA","LGRX",38.151111,21.425556,46,2,"E",154596
383,"Xoxocotlan Intl","Oaxaca","Mexico","OAX","MMOX",16.999906,-96.726639,4989,-6,"S",154223
384,"Port Moresby Jacksons Intl","Port Moresby","Papua New Guinea","POM","AYPY",-9.443383,147.22005,146,10,"U",152100
385,"Sokol","Magadan","Russia","GDX","UHMM",59.910989,150.720439,574,12,"N",152000
386,"Kashi","Kashi","China","KHG","ZWSH",39.542922,76.019956,4529,8,"U",146300
387,"Kimberley","Kimberley","South Africa","KIM","FAKM",-28.802834,24.765167,3950,2,"U",145000
388,"El Obeid","El Obeid","Sudan","EBD","HSOB",13.153219,30.232675,1927,2,"U",140000
389,"Odense","Odense","Denmark","ODE","EKOD",55.476664,10.330933,56,1,"E",138400
390,"Reykjavik","Reykjavik","Iceland","RKV","BIRK",64.13,-21.940556,48,0,"N",137941
391,"Port Gentil","Port Gentil","Gabon","POG","FOOG",-0.711739,8.754383,13,1,"N",124400
392,"Ambouli International Airport","Djibouti","Djibouti","JIB","HDAM",11.5472,43.1594,49,3,"U",120000
393,"Vorkuta Airport","Vorkuta","Russia","VKT","UUYW",67.4886,63.9931,604,6,"N",116000
394,"Eros Airport","Windhoek","Namibia","ERS","FYWE",-22.6122,17.0804,5575,1,"S",114500
395,"Pattimura","Ambon","Indonesia","AMQ","WAPP",-3.710264,128.089136,33,9,"N",111914
396,"Diego Aracena Intl","Iquique","Chile","IQQ","SCDA",-20.535222,-70.181275,155,-4,"S",110153
397,"Osvaldo Vieira International Airport","Bissau","Guinea-Bissau","OXB","GGOV",11.89485,-15.653681,129,0,"N",109486
398,"Moshoeshoe I Intl","Maseru","Lesotho","MSU","FXMM",-29.462256,27.552503,5348,2,"U",109382
399,"Dunedin","Dunedin","New Zealand","DUD","NZDN",-45.928055,170.198333,4,12,"Z",109000
400,"Townsville","Townsville","Australia","TSV","YBTL",-19.2525,146.765278,18,10,"N",106416
401,"Toamasina","Toamasina","Madagascar","TMM","FMMT",-18.109517,49.392536,22,3,"U",100000
402,"Olympia Regional Airpor","Olympia","United States","OLM","KOLM",46.9694044,-122.9025447,209,-7,"A",97400
403,"Comodoro Rivadavia","Comodoro Rivadavia","Argentina","CRD","SAVC",-45.785347,-67.465508,190,-3,"N",96817
404,"Banjul Intl","Banjul","Gambia","BJL","GBYD",13.337961,-16.652206,95,0,"N",95000
405,"Juana Azurduy De Padilla","Sucre","Bolivia","SRE","SLSU",-19.007083,-65.288747,9527,-4,"U",86609
406,"El Tepual Intl","Puerto Montt","Chile","PMC","SCTE",-41.438886,-73.093953,294,-4,"S",84410
407,"Lhasa-Gonggar","Lhasa","China","LXA","ZULS",29.297778,90.911944,13136,8,"U",84400
408,"Podgorica","Podgorica","Montenegro","TGD","LYPG",42.359392,19.251894,141,1,"E",82500
409,"Nueva Hesperides Intl","Salto","Uruguay","STY","SUSO",-31.438481,-57.985294,187,-3,"S",77400
410,"Darwin Intl","Darwin","Australia","DRW","YPDN",-12.4083333,130.87266,103,9.5,"N",72937
411,"Kuching Intl","Kuching","Malaysia","KCH","WBGG",1.484697,110.346933,89,8,"N",72555
412,"Kotlas Airport","Kotlas","Russia","KSZ","ULKK",61.2358,46.6975,184,4,"N",69000
413,"Brunei Intl","Bandar Seri Begawan","Brunei","BWN","WBSB",4.9442,114.928353,73,8,"U",64000
414,"Livingstone","Livingstone","Zambia","LVI","FLLI",-17.821756,25.822692,3302,2,"U",61296
415,"Rockhampton","Rockhampton","Australia","ROK","YBRK",-23.381944,150.475278,34,10,"O",59056
416,"Toliara","Toliara","Madagascar","TLE","FMST",-23.383369,43.728453,29,3,"U",55000
417,"Dodoma","Dodoma","Tanzania","DOD","HTDO",-6.170436,35.752578,3637,3,"U",54000
418,"Invercargill","Invercargill","New Zealand","IVC","NZNV",-46.412408,168.312992,5,12,"Z",52807
419,"Manu Dayak","Agadez","Niger","AJY","DRZA",16.965997,8.000114,1657,1,"N",50164
420,"Kigoma Airport","Kigoma","Tanzania","TKQ","HTKA",-4.883,29.633,2700,3,"U",50044
421,"Mtwara","Mtwara","Tanzania","MYW","HTMT",-10.339058,40.181781,371,2,"U",48510
422,"Hilo Intl","Hilo","United States","ITO","PHTO",19.721375,-155.048469,38,-10,"N",43200
423,"Fairbanks Intl","Fairbanks","United States","FAI","PAFA",64.815114,-147.856267,434,-9,"A",39900
424,"Cairns Intl","Cairns","Australia","CNS","YBCS",-16.885833,145.755278,10,10,"N",39096
425,"Rochambeau","Cayenne","French Guiana","CAY","SOCA",4.819808,-52.360447,26,-3,"U",38091
426,"Nelson","Nelson","New Zealand","NSN","NZNS",-41.298333,173.221111,17,12,"Z",33304
427,"Malabo","Malabo","Equatorial Guinea","SSG","FGSL",3.755267,8.708717,76,1,"N",30710
428,"Juneau Intl","Juneau","United States","JNU","PAJN",58.354972,-134.576278,21,-9,"A",19528
429,"Framnes","Narvik","Norway","NVK","ENNK",68.435833,17.388056,97,1,"E",19080
430,"In Salah","In Salah","Algeria","INZ","DAUI",27.251022,2.512017,896,1,"N",18800
431,"Walvis Bay Airport","Walvis Bay","Namibia","WVB","FYWB",-22.9799,14.6453,299,1,"S",16607
432,"Seal Cove Seaplane Base","Prince Rupert","Canada","ZSW","CZSW",54.3333,-130.283,0,-8,"A",16197
433,"Whitehorse Intl","Whitehorse","Canada","YXY","CYXY",60.709553,-135.067269,2317,-8,"A",15199
434,"Yellowknife","Yellowknife","Canada","YZF","CYZF",62.462778,-114.440278,675,-7,"A",11753
435,"Goose Bay","Goose Bay","Canada","YYR","CYYR",53.319168,-60.425833,160,-4,"A",7572
436,"Hammerfest Airport","Hammerfest","Norway","HFT","ENHF",70.679722,23.668889,799,1,"E",7208
437,"Okhotsk Airport","Okhotsk","Russia","OHO","UHOO",59.4101,143.057,0,11,"N",5738
438,"Kadala","Chita","Russia","HTA","UIAA",52.026317,113.305556,2272,10,"N",5728
439,"Nome","Nome","United States","OME","PAOM",64.512203,-165.445247,37,-9,"A",3500
440,"Inuvik Mike Zubko","Inuvik","Canada","YEV","CYEV",68.304167,-133.482778,224,-7,"A",3484
441,"Tasiilaq","Angmagssalik","Greenland","AGM","BGAM",65.612222,-37.618333,24,-2,"U",2618
442,"Schefferville","Schefferville","Canada","YKL","CYKL",54.805278,-66.805278,1709,-4,"A",1997
443,"Moosonee","Moosonee","Canada","YMO","CYMO",51.291111,-80.607778,30,-5,"A",1725
444,"Churchill","Churchill","Canada","YYQ","CYYQ",58.739167,-94.065,94,-6,"A",1304