ID,Name,City,Country,IATA/FAA,ICAO,Latitude,Longitude,Altitude,Timezone,DST, AIRPORTS with IATA and ICAO codes, http://openflights.org/data.html, 
1,"Chaghcharan Airport","Chaghcharan","Afghanistan","CCN","OACC",34.526667,65.271667,7383,4.5,"U"
2,"Zaranj Airport","Zaranj","Afghanistan","ZAJ","OAZJ",30.969167,61.866944,1581,4.5,"U"
3,"Konduz","Kunduz","Afghanistan","UND","OAUZ",36.665111,68.910833,1457,5,"U"
4,"Bost Airport","Lashkar Gah","Afghanistan","BST","OABT",31.558889,64.364167,2464,4.5,"U"
5,"Sharona","Sharona","Afghanistan","AZ3","OASA",33.1277215,68.8369847,7400,4.5,"N"
6,"Bagram AFB","Kabul","Afghanistan","BPM","OAIX",34.5646,69.1554,4895,4.5,"U"
7,"Tarin Kowt Airport","Tarin Kowt","Afghanistan","TII","OATN",32.605278,65.864167,3500,4.5,"U"
8,"FOB Salerno","Khost","Afghanistan","KHT","OAKS",33.3334,69.952,3756,4.5,"N"
9,"Faizabad Airport","Faizabad","Afghanistan","FBD","OAFZ",37.1211,70.5181,3872,4.5,"U"
10,"Kandahar","Kandahar","Afghanistan","KDH","OAKN",31.505756,65.847822,3337,5,"U"
11,"Kabul Intl","Kabul","Afghanistan","KBL","OAKB",34.565853,69.212328,5877,5,"U"
12,"Herat","Herat","Afghanistan","HEA","OAHR",34.210017,62.2283,3206,5,"U"
13,"Jalalabad","Jalalabad","Afghanistan","JAA","OAJL",34.399842,70.498625,1814,5,"U"
14,"Maimana","Maimama","Afghanistan","MMZ","OAMN",35.930789,64.760917,2743,5,"U"
15,"Mazar I Sharif","Mazar-i-sharif","Afghanistan","MZR","OAMS",36.706914,67.209678,1284,5,"U"
16,"Bamyan Airport","Bamyan","Afghanistan","BIN","OABN",34.816667,67.816667,2550,4.5,"N"
17,"Tirana Rinas","Tirana","Albania","TIA","LATI",41.414742,19.720561,126,1,"E"
18,"Annaba","Annaba","Algeria","AAE","DABB",36.822225,7.809167,16,1,"N"
19,"Jijel","Jijel","Algeria","GJL","DAAV",36.795136,5.873608,36,1,"N"
20,"Tamanrasset","Tamanrasset","Algeria","TMR","DAAT",22.811461,5.451075,4518,1,"N"
21,"Hassi R Mel","Tilrempt","Algeria","HRM","DAFH",32.930431,3.311542,2540,1,"N"
22,"Bou Chekif","Tiaret","Algeria","TID","DAOB",35.341136,1.463147,3245,1,"N"
23,"Mohamed Boudiaf Intl","Constantine","Algeria","CZL","DABC",36.276028,6.620386,2265,1,"N"
24,"Cheikh Larbi Tebessi","Tebessa","Algeria","TEE","DABS",35.431611,8.120717,2661,1,"N"
25,"Illizi Takhamalt","Illizi","Algeria","VVZ","DAAP",26.723536,8.622653,1778,1,"N"
26,"Batna Airport","Batna","Algeria","BLJ","DABT",35.752106,6.308589,2697,1,"N"
27,"B?char Boudghene Ben Ali Lotfi Airport","B?char","Algeria","CBH","DAOR",31.6457,-2.26986,2661,1,"N"
28,"Guemar Airport","Guemar","Algeria","ELU","DAUO",33.5114,6.77679,203,1,"N"
29,"Soummam","Bejaja","Algeria","BJA","DAAE",36.711997,5.069922,20,1,"N"
30,"Boufarik","Boufarik","Algeria","QFD","DAAK",36.545834,2.876111,335,1,"N"
31,"Tiska","Djanet","Algeria","DJG","DAAJ",24.292767,9.452444,3176,1,"N"
32,"Houari Boumediene","Algier","Algeria","ALG","DAAG",36.691014,3.215408,82,1,"N"
33,"Tindouf","Tindouf","Algeria","TIN","DAOF",27.700372,-8.167103,1453,1,"N"
34,"Laghouat","Laghouat","Algeria","LOO","DAUL",33.764383,2.928344,2510,1,"N"
35,"Timimoun","Timimoun","Algeria","TMX","DAUT",29.237119,0.276033,1027,1,"N"
36,"In Salah","In Salah","Algeria","INZ","DAUI",27.251022,2.512017,896,1,"N"
37,"Sidi Mahdi","Touggourt","Algeria","TGR","DAUK",33.067803,6.088672,279,1,"N"
38,"Ain Arnat Airport","Setif","Algeria","QSF","DAAS",36.1781,5.32449,3360,0,"U"
39,"Tsletsi Airport","Djelfa","Algeria","QDJ","DAFI",34.6657,3.351,10,1,"U"
40,"Bordj Badji Mokhtar Airport","Bordj Badji Mokhtar","Algeria","BMW","DATM",21.375,0.923889,1303,1,"N"
41,"Ouargla","Ouargla","Algeria","OGX","DAUU",31.917223,5.412778,492,1,"N"
42,"In Amenas","Zarzaitine","Algeria","IAM","DAUZ",28.05155,9.642911,1847,1,"N"
43,"Oued Irara","Hassi Messaoud","Algeria","HME","DAUH",31.672972,6.140444,463,1,"N"
44,"Zenata","Tlemcen","Algeria","TLM","DAON",35.016667,-1.45,814,1,"N"
45,"Es Senia","Oran","Algeria","ORN","DAOO",35.623858,-0.621183,295,1,"N"
46,"Ech Cheliff","Ech-cheliff","Algeria","QAS","DAOI",36.212658,1.331775,463,1,"N"
47,"Tafaraoui","Oran","Algeria","TAF","DAOL",35.542444,-0.532278,367,1,"N"
48,"Ghriss","Ghriss","Algeria","MUW","DAOV",35.207725,0.147142,1686,1,"N"
49,"Biskra","Biskra","Algeria","BSK","DAUB",34.793289,5.738231,289,1,"N"
50,"El Golea","El Golea","Algeria","ELG","DAUE",30.571294,2.859586,1306,1,"N"
51,"Noumerat","Ghardaia","Algeria","GHA","DAUG",32.384106,3.794114,1512,1,"N"
52,"Touat Cheikh Sidi Mohamed Belkebir","Adrar","Algeria","AZR","DAUA",27.837589,-0.186414,919,1,"N"
53,"Pago Pago Intl","Pago Pago","American Samoa","PPG","NSTU",-14.331,-170.7105,32,-11,"U"
54,"Fitiuta Airport","Fiti'uta","American Samoa","FTI","NSFQ",-14.216111,-169.423611,110,-11,"U"
55,"Menongue","Menongue","Angola","SPP","FNME",-14.657583,17.719833,4469,1,"N"
56,"Porto Amboim","Porto Amboim","Angola","PBN","FNPA",-10.721956,13.765528,16,1,"N"
57,"Negage","Negage","Angola","GXG","FNNG",-7.754506,15.287728,4105,1,"N"
58,"Luanda 4 De Fevereiro","Luanda","Angola","LAD","FNLU",-8.858375,13.231178,243,1,"N"
59,"Kuito","Kuito","Angola","SVP","FNKU",-12.404633,16.947414,5618,1,"N"
60,"Malanje","Malanje","Angola","MEG","FNMA",-9.525086,16.312406,3868,1,"N"
61,"Saurimo","Saurimo","Angola","VHC","FNSA",-9.689067,20.431875,3584,1,"N"
62,"Xangongo","Xangongo","Angola","XGN","FNXA",-16.755417,14.965344,3635,1,"N"
63,"Lucapa Airport","Lucapa","Angola","LBZ","FNLK",-8.443056,20.732222,500,1,"U"
64,"Kapanda Airport","Kapanda","Angola","KNP","FNCP",-9.771944,15.456111,500,1,"U"
65,"Lubango","Lubango","Angola","SDD","FNUB",-14.924733,13.575022,5778,1,"N"
66,"Luena","Luena","Angola","LUO","FNUE",-11.768086,19.897672,4360,1,"N"
67,"Uige","Uige","Angola","UGO","FNUG",-7.603067,15.027822,2720,1,"N"
68,"Ondjiva Pereira Airport","Ondjiva","Angola","VPE","FNGI",-17.043464,15.683822,3566,1,"N"
69,"Namibe Airport","Mocamedes","Angola","MSZ","FNMO",-15.261222,12.146756,210,1,"N"
70,"Dundo Airport","Dundo","Angola","DUE","FNDU",-7.40089,20.8185,2451,1,"N"
71,"Soyo","Soyo","Angola","SZA","FNSO",-6.141086,12.371764,15,1,"N"
72,"Catumbela Airport","Catumbela","Angola","CBT","FNCT",-12.4792,13.4869,0,1,"N"
73,"Cabinda","Cabinda","Angola","CAB","FNCA",-5.596992,12.188353,66,1,"N"
74,"Huambo","Huambo","Angola","NOV","FNHU",-12.808878,15.760547,5587,1,"N"
75,"Mbanza Congo","M'banza-congo","Angola","SSY","FNBC",-6.269897,14.247025,1860,1,"N"
76,"Benguela","Benguela","Angola","BUG","FNBG",-12.609025,13.403711,118,1,"N"
77,"Wallblake","The Valley","Anguilla","AXA","TQPF",18.204834,-63.055084,127,-4,"U"
78,"Codrington Airport","Codrington","Antigua and Barbuda","BBQ","TAPH",17.6358,-61.8286,15,-4,"U"
79,"V C Bird Intl","Antigua","Antigua and Barbuda","ANU","TAPA",17.136749,-61.792667,62,-4,"U"
80,"Mar Del Plata","Mar Del Plata","Argentina","MDQ","SAZM",-37.934167,-57.573333,71,-3,"N"
81,"Ushuaia Malvinas Argentinas","Ushuaia","Argentina","USH","SAWH",-54.843278,-68.29575,71,-3,"N"
82,"San Julian","San Julian","Argentina","ULA","SAWJ",-49.306775,-67.802589,190,-3,"N"
83,"Comandante Espora","Bahia Blanca","Argentina","BHI","SAZB",-38.724967,-62.169317,246,-3,"N"
84,"Santa Cruz","Santa Cruz","Argentina","RZA","SAWU",-50.01655,-68.579197,364,-3,"N"
85,"Perito Moreno","Perito Moreno","Argentina","PMQ","SAWP",-46.537911,-70.978689,1410,-3,"N"
86,"Gobernador Castello","Viedma","Argentina","VDM","SAVV",-40.869222,-63.000389,20,-3,"N"
87,"Almirante Zar","Trelew","Argentina","REL","SAVT",-43.2105,-65.270319,141,-3,"N"
88,"Esquel","Esquel","Argentina","EQS","SAVE",-42.90795,-71.139472,2621,-3,"N"
89,"El Tehuelche","Puerto Madryn","Argentina","PMY","SAVY",-42.759161,-65.102725,426,-3,"N"
90,"Rio Gallegos","Rio Gallegos","Argentina","RGL","SAWG",-51.608875,-69.312636,61,-3,"N"
91,"Rio Grande","Rio Grande","Argentina","RGA","SAWE",-53.777667,-67.749389,65,-3,"N"
92,"Puerto Deseado","Puerto Deseado","Argentina","PUD","SAWD",-47.735292,-65.904097,266,-3,"N"
93,"Presidente Peron","Neuquen","Argentina","NQN","SAZN",-38.949,-68.155711,895,-3,"N"
94,"Santa Teresita Airport","Santa Teresita","Argentina","SST","SAZL",-36.542317,-56.721756,9,-3,"N"
95,"Lago Argentino Airport","El Calafate","Argentina","ING","SAWA",-50.3361,-72.2486,732,-3,"N"
96,"Ministro Pistarini","Buenos Aires","Argentina","EZE","SAEZ",-34.822222,-58.535833,67,-3,"N"
97,"Las Heras Airport","Las Heras","Argentina","LHS","SAVH",-46.533056,-68.951111,1082,-3,"N"
98,"Antoine De St Exupery Airport","San Antonio Oeste","Argentina","OES","SAVN",-40.7512,-65.0343,85,-3,"N"
99,"Gobernador Gregores Airport","Gobernador Gregores","Argentina","GGS","SAWR",-48.7831,-70.15,356,-3,"N"
100,"El Calafate","El Calafate","Argentina","FTE","SAWC",-50.280322,-72.053103,669,-3,"N"
101,"Tandil","Tandil","Argentina","TDL","SAZT",-37.237392,-59.227922,574,-3,"N"
102,"San Carlos De Bariloche","San Carlos De Bariloche","Argentina","BRC","SAZS",-41.151172,-71.157542,2776,-3,"N"
103,"Santa Rosa","Santa Rosa","Argentina","RSA","SAZR",-36.588322,-64.275694,630,-3,"N"
104,"General Enrique Mosconi Airport","Tartagal","Argentina","TTG","SAST",-22.619167,-63.793189,1472,-3,"N"
105,"Aviador C Campos","San Martin Des Andes","Argentina","CPC","SAZY",-40.075383,-71.137294,2569,-3,"N"
106,"Villa Gesell","Villa Gesell","Argentina","VLG","SAZV",-37.235408,-57.029239,32,-3,"N"
107,"Comodoro Rivadavia","Comodoro Rivadavia","Argentina","CRD","SAVC",-45.785347,-67.465508,190,-3,"N"
108,"Aeroparque Jorge Newbery","Buenos Aires","Argentina","AEP","SABE",-34.559175,-58.415606,18,-3,"N"
109,"Ambrosio L V Taravella","Cordoba","Argentina","COR","SACO",-31.323619,-64.207953,1604,-3,"N"
110,"Rosario","Rosario","Argentina","ROS","SAAR",-32.903611,-60.785,85,-3,"N"
111,"Sauce Viejo","Santa Fe","Argentina","SFN","SAAV",-31.711666,-60.811668,56,-3,"N"
112,"Malargue","Malargue","Argentina","LGS","SAMM",-35.493597,-69.574267,4683,-3,"N"
113,"San Rafael","San Rafael","Argentina","AFA","SAMR",-34.588314,-68.403854,2470,-3,"N"
114,"La Plata","La Plata","Argentina","LPG","SADL",-34.972222,-57.894694,72,-3,"N"
115,"El Plumerillo","Mendoza","Argentina","MDZ","SAME",-32.831717,-68.792856,2310,-3,"N"
116,"General Urquiza","Parana","Argentina","PRA","SAAP",-31.794778,-60.480361,243,-3,"N"
117,"Necochea Airport","Necochea","Argentina","NEC","SAZO",-38.483056,-58.817222,72,-3,"N"
118,"Jose de San Martin Airport","Jose de San Martin","Argentina","JSM","SAWS",-44.016667,-70.466667,4359,-3,"N"
119,"Sierra Grande","Sierra Grande","Argentina","SGV","SAVS",-41.592,-65.341,820,-3,"N"
120,"Alto Rio Senguer Airport","Alto Rio Senguer","Argentina","ARR","SAVR",-45.016667,-70.816667,2145,-3,"N"
121,"Gualeguaychu","Gualeguaychu","Argentina","GHU","SAAG",-33.010278,-58.613056,75,-3,"N"
122,"Ingeniero Jacobacci","Ingeniero Jacobacci","Argentina","IGB","SAVJ",-41.3,-69.5833,2936,-3,"N"
123,"ZAPALA","ZAPALA","Argentina","APZ","SAHZ",-38.9755,-70.113581,3330,-3,"N"
124,"Comodoro Pierrestegui","Concordia","Argentina","COC","SAAC",-31.296944,-57.996631,112,-3,"N"
125,"Catamarca","Catamarca","Argentina","CTC","SANC",-28.593214,-65.750925,1522,-3,"N"
126,"Cataratas Del Iguazu","Iguazu Falls","Argentina","IGR","SARI",-25.737281,-54.473444,916,-3,"N"
127,"Paso De Los Libres","Paso De Los Libres","Argentina","AOL","SARL",-29.689425,-57.152078,230,-3,"N"
128,"Resistencia","Resistencia","Argentina","RES","SARE",-27.449986,-59.056125,173,-3,"N"
129,"Formosa","Formosa","Argentina","FMA","SARF",-26.212722,-58.228111,194,-3,"N"
130,"Posadas","Posadas","Argentina","PSS","SARP",-27.385839,-55.970728,430,-3,"N"
131,"Oran","Oran","Argentina","ORA","SASO",-23.152779,-64.32917,1168,-3,"N"
132,"El Bolson","El Bolson","Argentina","EHL","SAVB",-41.943189,-71.532289,1131,-3,"N"
133,"Salta","Salta","Argentina","SLA","SASA",-24.855978,-65.486169,4088,-3,"N"
134,"Jujuy","Jujuy","Argentina","JUJ","SASJ",-24.392778,-65.097778,3019,-3,"N"
135,"San Luis","San Luis","Argentina","LUQ","SAOU",-33.273192,-66.356422,2329,-3,"N"
136,"Villa Dolores","Villa Dolores","Argentina","VDR","SAOD",-31.945183,-65.146283,1915,-3,"N"
137,"La Rioja","La Rioja","Argentina","IRJ","SANL",-29.381636,-66.795839,1436,-3,"N"
138,"Corrientes","Corrientes","Argentina","CNQ","SARC",-27.445503,-58.761864,203,-3,"N"
139,"Rio Cuarto Area De Material","Rio Cuarto","Argentina","RCU","SAOC",-33.085128,-64.261314,1381,-3,"N"
140,"Santiago Del Estero","Santiago Del Estero","Argentina","SDE","SANE",-27.765617,-64.310122,656,-3,"N"
141,"Teniente Benjamin Matienzo","Tucuman","Argentina","TUC","SANT",-26.840861,-65.104944,1495,-3,"N"
142,"San Juan","San Julian","Argentina","UAQ","SANU",-31.571472,-68.418194,1959,-3,"N"
143,"Zvartnots","Yerevan","Armenia","EVN","UDYZ",40.147275,44.395881,2838,4,"E"
144,"Gyumri","Gyumri","Armenia","LWN","UDSG",40.750369,43.859342,5000,4,"E"
145,"Reina Beatrix Intl","Oranjestad","Aruba","AUA","TNCA",12.501389,-70.015221,60,-4,"U"
146,"Palm Island Airport","Palm Island","Australia","PMK","YPAM",-18.7553,146.581,28,10,"O"
147,"Paraburdoo Airport","Paraburdoo","Australia","PBO","YPBO",-23.1711,117.745,1406,8,"O"
148,"Port Augusta Airport","Argyle","Australia","PUG","YPAG",-32.506944,137.716667,56,9.5,"O"
149,"Newman Airport","Newman","Australia","ZNE","YNWN",-23.4178,119.803,1724,8,"O"
150,"Olympic Dam Airport","Olympic Dam","Australia","OLP","YOLD",-30.485,136.877,343,9.5,"O"
151,"Mornington Island Airport","Mornington Island","Australia","ONG","YMTI",-16.6625,139.178,33,9,"O"
152,"Murray Island Airport","Murray Island","Australia","MYI","YMUI",-9.91667,144.055,0,10,"O"
153,"Nowra Airport","Nowra","Australia","NOA","YSNW",-34.9489,150.537,400,10,"O"
154,"Mount Gambier Airport","Mount Gambier","Australia","MGB","YMTG",-37.7456,140.785,212,9.5,"O"
155,"Maryborough Airport","Maryborough","Australia","MBH","YMYB",-25.5133,152.715,38,10,"O"
156,"Normanton Airport","Normanton","Australia","NTN","YNTN",-17.6836,141.07,73,10,"O"
157,"Taree Airport","Taree","Australia","TRO","YTRE",-31.8886,152.514,38,10,"U"
158,"Narrandera Airport","Narrandera","Australia","NRA","YNAR",-34.7022,146.512,474,10,"O"
159,"Narrabri Airport","Narrabri","Australia","NAA","YNBR",-30.3192,149.827,788,10,"O"
160,"Wagga Wagga","Wagga Wagga","Australia","WGA","YSWG",-35.165278,147.466389,724,10,"O"
161,"Tamworth","Tamworth","Australia","TMW","YSTW",-31.083889,150.846667,1334,10,"O"
162,"Canberra","Canberra","Australia","CBR","YSCB",-35.306944,149.195,1886,10,"O"
163,"Tindal Airport","Katherine","Australia","KTR","YPTN",-14.5211,132.378,443,9,"O"
164,"Mudgee Airport","Mudgee","Australia","DGE","YMDG",-32.5625,149.611,1545,10,"O"
165,"Camden","Camden","Australia","CDU","YSCN",-34.040278,150.687222,230,10,"O"
166,"Coffs Harbour","Coff's Harbour","Australia","CFS","YSCH",-30.320556,153.116389,18,10,"O"
167,"Dubbo","Dubbo","Australia","DBO","YSDU",-32.216667,148.574722,935,10,"O"
168,"Sydney Intl","Sydney","Australia","SYD","YSSY",-33.946111,151.177222,21,10,"O"
169,"Richmond","Richmond","Australia","RCM","YSRI",-33.600556,150.780833,67,10,"O"
170,"Roma Airport","Roma","Australia","RMA","YROM",-26.545,148.775,1032,10,"O"
171,"Parkes Airport","Parkes","Australia","PKE","YPKS",-33.1314,148.239,1069,10,"O"
172,"Port Lincoln Airport","Port Lincoln","Australia","PLO","YPLC",-34.6053,135.88,36,9.5,"O"
173,"Maitland Airport","Maitland","Australia","MTL","YMND",-32.7033,151.488,75,10,"O"
174,"Gove Airport","Gove","Australia","GOV","YPGV",-12.2694,136.818,192,9.5,"O"
175,"Emerald","Emerald","Australia","EMD","YEML",-23.5675,148.179167,624,10,"O"
176,"Quilpie Airport","Quilpie","Australia","ULP","YQLP",-26.6122,144.253,655,10,"O"
177,"Ramingining Airport","Ramingining","Australia","RAM","YRNG",-12.3564,134.898,206,9.5,"O"
178,"Portland Airport","Portland","Australia","PTJ","YPOD",-38.3181,141.471,265,10,"O"
179,"Pormpuraaw Airport","Pormpuraaw","Australia","EDR","YPMP",-14.8967,141.609,10,10,"O"
180,"Port Macquarie Airport","Port Macquarie","Australia","PQQ","YPMQ",-31.4358,152.863,12,10,"O"
181,"King Island Airport","King Island","Australia","KNS","YKII",-39.8775,143.878,132,10,"O"
182,"Kalkgurung Airport","Kalkgurung","Australia","KFG","YKKG",-17.4319,130.808,646,9.5,"O"
183,"Kalbarri Airport","Kalbarri","Australia","KAX","YKBR",-27.69,114.262,157,8,"O"
184,"Hughenden Airport","Hughenden","Australia","HGD","YHUG",-20.815,144.225,1043,10,"O"
185,"Julia Creek Airport","Julia Creek","Australia","JCK","YJLC",-20.6683,141.723,404,10,"O"
186,"Leonora Airport","Leonora","Australia","LNO","YLEO",-28.8781,121.315,1217,8,"O"
187,"Lake Evella Airport","Lake Evella","Australia","LEL","YLEV",-12.4989,135.806,256,9.5,"O"
188,"Kubin Airport","Kubin","Australia","KUG","YKUB",-10.225,142.218,15,9,"O"
189,"Karumba Airport","Karumba","Australia","KRB","YKMB",-17.4567,140.83,5,10,"O"
190,"Kowanyama Airport","Kowanyama","Australia","KWM","YKOW",-15.4856,141.751,35,10,"O"
191,"Geraldton Airport","Geraldton","Australia","GET","YGEL",-28.7961,114.707,121,8,"O"
192,"Gladstone Airport","Gladstone","Australia","GLT","YGLA",-23.8697,151.223,64,10,"O"
193,"Flinders Island Airport","Flinders Island","Australia","FLS","YFLI",-40.0917,147.993,10,10,"O"
194,"Elcho Island Airport","Elcho Island","Australia","ELC","YELD",-12.0194,135.571,101,9.5,"O"
195,"Esperance Airport","Esperance","Australia","EPR","YESP",-33.6844,121.823,470,8,"O"
196,"Hooker Creek Airport","Hooker Creek","Australia","HOK","YHOO",-18.3367,130.638,320,9.5,"O"
197,"Mount Hotham Airport","Mount Hotham","Australia","MHU","YHOT",-37.0475,147.334,4260,10,"O"
198,"Horn Island Airport","Horn Island","Australia","HID","YHID",-10.5864,142.29,43,10,"O"
199,"Groote Eylandt Airport","Groote Eylandt","Australia","GTE","YGTE",-13.975,136.46,53,9.5,"O"
200,"Griffith Airport","Griffith","Australia","GFF","YGTH",-34.2508,146.067,439,10,"O"
201,"McArthur River Mine Airport","McArthur River Mine","Australia","MCV","YMHU",-16.4425,136.084,131,9.5,"O"
202,"Mildura Airport","Mildura","Australia","MQL","YMIA",-34.2292,142.086,167,10,"O"
203,"Maningrida Airport","Maningrida","Australia","MNG","YMGD",-12.0561,134.234,123,9.5,"O"
204,"Merimbula Airport","Merimbula","Australia","MIM","YMER",-36.9086,149.901,7,10,"O"
205,"Milingimbi Airport","Milingimbi","Australia","MGT","YMGB",-12.0944,134.894,53,9.5,"O"
206,"Moranbah Airport","Moranbah","Australia","MOV","YMRB",-22.0578,148.077,770,10,"O"
207,"Moruya Airport","Moruya","Australia","MYA","YMRY",-35.8978,150.144,14,10,"O"
208,"Moree Airport","Moree","Australia","MRZ","YMOR",-29.4989,149.845,701,10,"O"
209,"Orange Airport","Orange","Australia","OAG","YORG",-33.3817,149.133,3115,10,"U"
210,"Mount Magnet Airport","Mount Magnet","Australia","MMG","YMOG",-28.1161,117.842,1354,8,"O"
211,"Lismore Airport","Lismore","Australia","LSY","YLIS",-28.8303,153.26,35,10,"O"
212,"Lightning Ridge Airport","Lightning Ridge","Australia","LHG","YLRD",-29.4567,147.984,540,10,"O"
213,"Lockhart River Airport","Lockhart River","Australia","IRG","YLHR",-12.7869,143.305,77,10,"O"
214,"Lord Howe Island Airport","Lord Howe Island","Australia","LDH","YLHI",-31.5383,159.077,5,10.5,"O"
215,"Grafton Airport","Grafton","Australia","GFN","YGFN",-29.7594,153.03,110,10,"U"
216,"Mabuiag Island Airport","Mabuiag Island","Australia","UBB","YMAA",-9.95,142.183,0,9,"O"
217,"Meekatharra Airport","Meekatharra","Australia","MKR","YMEK",-26.6117,118.548,1713,8,"O"
218,"Laverton Airport","Laverton","Australia","LVO","YLTN",-28.6136,122.424,1530,8,"O"
219,"Longreach Airport","Longreach","Australia","LRE","YLRE",-23.4342,144.28,627,10,"O"
220,"Leinster Airport","Leinster","Australia","LER","YLST",-27.8433,120.703,1631,8,"O"
221,"Sydney Bankstown","Sydney","Australia","BWU","YSBK",-33.924444,150.988333,29,10,"O"
222,"Townsville","Townsville","Australia","TSV","YBTL",-19.2525,146.765278,18,10,"N"
223,"Rockhampton","Rockhampton","Australia","ROK","YBRK",-23.381944,150.475278,34,10,"O"
224,"Avalon","Avalon","Australia","AVV","YMAV",-38.039444,144.469444,35,10,"O"
225,"Weipa","Weipa","Australia","WEI","YBWP",-12.678611,141.925278,63,10,"O"
226,"Proserpine Whitsunday Coast","Prosserpine","Australia","PPP","YBPN",-20.495,148.552222,82,10,"O"
227,"Mount Isa","Mount Isa","Australia","ISA","YBMA",-20.663889,139.488611,1121,10,"O"
228,"Charleville","Charlieville","Australia","CTL","YBCV",-26.413334,146.2625,1003,10,"O"
229,"Mackay","Mackay","Australia","MKY","YBMK",-21.171667,149.179722,19,10,"O"
230,"Sunshine Coast","Maroochydore","Australia","MCY","YBMC",-26.603333,153.091111,15,10,"O"
231,"Albury","Albury","Australia","ABX","YMAY",-36.067778,146.958056,539,10,"O"
232,"Penneshaw Airport","Penneshaw","Australia","PEA","YPSH",-34.75,137.933,0,9.5,"O"
233,"Geelong Airport","Geelong","Australia","GEX","YGLG",-38.225,144.333,43,10,"O"
234,"Bundaberg","Bundaberg","Australia","BDB","YBUD",-24.903889,152.318611,107,10,"O"
235,"Hayman Island Airport","Hayman Island","Australia","HIS","YHYN",-20.066668,148.86667,10,10,"O"
236,"Thangool","Biloela","Australia","THG","YTNG",-24.493889,150.576111,644,10,"O"
237,"Newcastle Airport","Newcastle","Australia","NTL","YWLM",-32.78,151.83,31,10,"O"
238,"Goulburn Airport","Goulburn","Australia","GUL","YGLB",-34.8103,149.726,2141,10,"O"
239,"Ballina Byron Gateway","Ballina Byron Bay","Australia","BNK","YBNA",-28.833889,153.5625,7,10,"O"
240,"Broome","Broome","Australia","BME","YPBR",-17.8,122.2,56,8,"O"
241,"Hamilton Airport","Hamilton","Australia","HLT","YHML",-37.648889,142.065278,803,10,"O"
242,"Lizard Island Airport","Lizard Island","Australia","LZR","YLZI",-14.673056,145.454444,40,10,"O"
243,"Fitzroy Crossing Airport","Fitzroy Crossing","Australia","FIZ","YFTZ",-18.178,125.591,374,8,"U"
244,"Halls Creek Airport","Halls Creek","Australia","HCQ","YHLC",-18.233889,127.669722,1346,8,"U"
245,"Dunk Island Airport","Dunk Island","Australia","DKI","YDKI",-17.939722,146.141944,38,10,"U"
246,"Derby Airport","Derby","Australia","DRB","YDBY",-17.39,123.68,26,8,"U"
247,"Barrow Island Airport","Barrow Island","Australia","BWB","YBWX",-20.798,115.406,25,8,"U"
248,"Bathurst Island Airport","Bathurst Island","Australia","BRT","YBTI",-11.769167,130.619722,67,9.5,"U"
249,"Walgett Airport","Walgett","Australia","WGE","YWLG",-30.0318,148.1222,439,10,"U"
250,"Ravensthorpe Airport","Ravensthorpe","Australia","RVT","YNRV",-33.797222,120.208056,209,8,"U"
251,"Brisbane Intl","Brisbane","Australia","BNE","YBBN",-27.384167,153.1175,13,10,"N"
252,"Alice Springs","Alice Springs","Australia","ASP","YBAS",-23.806667,133.902222,1789,9.5,"N"
253,"Cairns Intl","Cairns","Australia","CNS","YBCS",-16.885833,145.755278,10,10,"N"
254,"Gold Coast","Coolangatta","Australia","OOL","YBCG",-28.164444,153.504722,21,10,"N"
255,"Bamaga Injinoo","Amberley","Australia","ABM","YBAM",-10.950833,142.459444,34,10,"O"
256,"Cessnock Airport","Cessnock","Australia","CES","YCNK",-32.7875,151.342,211,10,"O"
257,"Orchid Beach","Fraser Island","Australia","OKB","KOKB",-24.95841,153.3145,6,-10,"O"
258,"Mount Keith","Mount Keith","Australia","WME","YMNE",-27.286389,120.554722,1792,8,"O"
259,"Scone Airport","Scone","Australia","NSO","YSCO",-32.0372,150.832,745,10,"O"
260,"Cooinda","Cooinda","Australia","CDA","YCOO",-12.9033,132.532,43,9.5,"U"
261,"Launceston","Launceston","Australia","LST","YMLT",-41.545278,147.214167,562,10,"O"
262,"Hobart","Hobart","Australia","HBA","YMHB",-42.836111,147.510278,13,10,"O"
263,"Melbourne Intl","Melbourne","Australia","MEL","YMML",-37.673333,144.843333,434,10,"O"
264,"Melbourne Moorabbin","Melbourne","Australia","MBW","YMMB",-37.975833,145.102222,50,10,"O"
265,"Melbourne Essendon","Melbourne","Australia","MEB","YMEN",-37.728056,144.901944,282,10,"O"
266,"Mallacoota Airport","Mallacoota","Australia","XMC","YMCO",-37.598301,149.720001,31,11,"U"
267,"Renmark","Renmark","Australia","RMK","YREN",-34.118,140.404,115,9.5,"O"
268,"Toowoomba","Toowoomba","Australia","TWB","YTWB",-27.542778,151.916389,2086,10,"N"
269,"Yuendumu","Yuendumu","Australia","YUE","YYND",-22.254167,131.781944,2205,9.5,"O"
270,"Adelaide Intl","Adelaide","Australia","ADL","YPAD",-34.945,138.530556,20,9.5,"O"
271,"Whitsunday Airstrip","Airlie Beach","Australia","WSY","YWHI",-20.276,148.755,60,10,"O"
272,"Port Hedland Intl","Port Hedland","Australia","PHE","YPPD",-20.377778,118.626389,33,8,"O"
273,"Woomera","Woomera","Australia","UMR","YPWR",-31.144167,136.816944,548,9.5,"O"
274,"Perth Intl","Perth","Australia","PER","YPPH",-31.940278,115.966944,67,8,"N"
275,"Learmonth","Learmonth","Australia","LEA","YPLM",-22.235556,114.088611,19,8,"O"
276,"Karratha","Karratha","Australia","KTA","YPKA",-20.712222,116.773333,29,8,"O"
277,"Perth Jandakot","Perth","Australia","JAD","YPJT",-32.0975,115.881111,99,8,"O"
278,"Kununurra","Kununurra","Australia","KNX","YPKU",-15.778056,128.7075,145,8,"O"
279,"Kalgoorlie Boulder","Kalgoorlie","Australia","KGI","YPKG",-30.789444,121.461667,1203,8,"O"
280,"Wollongong Airport","Wollongong","Australia","WOL","YWOL",-34.5611,150.789,31,10,"O"
281,"Winton Airport","Winton","Australia","WIN","YWTN",-22.3636,143.086,638,10,"O"
282,"Whyalla Airport","Whyalla","Australia","WYA","YWHA",-33.0589,137.514,41,9.5,"O"
283,"Wiluna Airport","Wiluna","Australia","WUN","YWLU",-26.6292,120.221,1649,8,"O"
284,"Wynyard Airport","Burnie","Australia","BWT","YWYY",-40.9989,145.731,62,10,"O"
285,"Blackall","Blackall","Australia","BKQ","YBCK",-24.427778,145.428611,928,10,"O"
286,"Jabiru","Jabiru","Australia","JAB","YJAB",-12.6571,132.893,52,9.5,"U"
287,"Yorke Island Airport","Yorke Island","Australia","OKR","YYKI",-9.75703,143.411,0,10,"O"
288,"Yam Island Airport","Yam Island","Australia","XMY","YYMI",-9.90111,142.776,0,10,"O"
289,"Windorah Airport","Windorah","Australia","WNR","YWDH",-25.4131,142.667,452,10,"O"
290,"Telfer Airport","Telfer","Australia","TEF","YTEF",-21.713057,122.21222,970,8,"N"
291,"Saibai Island Airport","Saibai Island","Australia","SBR","YSII",-9.37833,142.625,0,10,"O"
292,"St George Airport","St George","Australia","SGO","YSGE",-28.0497,148.595,656,10,"O"
293,"Shark Bay Airport","Shark Bay","Australia","MJK","YSHK",-25.8939,113.577,111,8,"O"
294,"Strahan Airport","Strahan","Australia","SRN","YSRN",-42.155,145.292,20,10,"O"
295,"Victoria River Downs Airport","Victoria River Downs","Australia","VCD","YVRD",-16.4033,131.002,89,9.5,"O"
296,"Warraber Island Airport","Sue Islet","Australia","SYU","YWBS",-10.2083,142.825,3,10,"O"
297,"Thargomindah Airport","Thargomindah","Australia","XTG","YTGM",-27.9864,143.811,433,10,"O"
298,"Tennant Creek Airport","Tennant Creek","Australia","TCA","YTNK",-19.6344,134.183,1236,9.5,"O"
299,"Aurukun Airport","Aurukun","Australia","AUU","YAUR",-13.3539,141.721,31,10,"O"
300,"Argyle Airport","Argyle","Australia","GYL","YARG",-16.6369,128.451,522,8,"O"
301,"Albany Airport","Albany","Australia","ALH","YABA",-34.9433,117.809,233,8,"O"
302,"Ayers Rock","Uluru","Australia","AYQ","YAYE",-25.186111,130.975556,1626,9.5,"N"
303,"Badu Island Airport","Badu Island","Australia","BDD","YBAU",-10.15,141.175,14,9,"O"
304,"Barcaldine Airport","Barcaldine","Australia","BCI","YBAR",-23.5653,145.307,878,10,"O"
305,"Moomba","Moomba","Australia","MOO","YOOM",-28.1,140.2,143,9.5,"O"
306,"Innisfail","Innisfail","Australia","IFL","YIFL",-17.55908,146.01123,46,10,"U"
307,"Roper Bar","Roper Bar","Australia","RPB","YRRB",-14.73457,134.5252,70,9.5,"U"
308,"Great Keppel Island","Great Keppel Island","Australia","GKL","YGKL",-23.186,150.943,250,10,"U"
309,"Hervey Bay Airport","Hervey Bay","Australia","HVB","YHBA",-25.318889,152.880278,60,10,"O"
310,"Kingscote Airport","Kingscote","Australia","KGC","YKSC",-35.713889,137.521389,24,9.5,"O"
311,"Darwin Intl","Darwin","Australia","DRW","YPDN",-12.4083333,130.87266,103,9.5,"N"
312,"Burketown Airport","Burketown","Australia","BUC","YBKT",-17.7486,139.534,21,10,"O"
313,"Boigu Airport","Boigu","Australia","GIC","YBOI",-9.23278,142.218,23,10,"O"
314,"Oakey Airport","Oakey","Australia","OKY","YBOK",-27.411389,151.735278,1335,10,"O"
315,"Bourke Airport","Bourke","Australia","BRK","YBKE",-30.0392,145.952,352,10,"O"
316,"Bedourie Airport","Bedourie","Australia","BEU","YBIE",-24.3461,139.46,300,10,"O"
317,"Hamilton Island Airport","Hamilton Island","Australia","HTI","YBHM",-20.3581,148.952,15,10,"O"
318,"Boulia Airport","Boulia","Australia","BQL","YBOU",-22.9133,139.9,542,10,"O"
319,"Broken Hill Airport","Broken Hill","Australia","BHQ","YBHI",-32.0014,141.472,958,9.5,"O"
320,"Birdsville Airport","Birdsville","Australia","BVI","YBDV",-25.8975,139.348,159,10,"O"
321,"Carnarvon Airport","Carnarvon","Australia","CVQ","YCAR",-24.8806,113.672,13,8,"O"
322,"Armidale","Armidale","Australia","ARM","YARM",-30.528056,151.617222,3556,10,"O"
323,"Bathurst Airport","Bathurst","Australia","BHS","YBTH",-33.4094,149.652,2435,10,"O"
324,"Blackwater Airport","Blackwater","Australia","BLT","YBTR",-23.6031,148.807,657,10,"O"
325,"Coen Airport","Coen","Australia","CUQ","YCOE",-13.7608,143.114,532,10,"O"
326,"Coonamble Airport","Coonamble","Australia","CNB","YCNM",-30.9833,148.376,604,10,"O"
327,"Cooma Snowy Mountains Airport","Cooma","Australia","OOM","YCOM",-36.3006,148.974,3088,10,"O"
328,"Coober Pedy Airport","Coober Pedy","Australia","CPD","YCBP",-29.04,134.721,740,9.5,"O"
329,"Doomadgee Airport","Doomadgee","Australia","DMD","YDMG",-17.9403,138.822,153,10,"O"
330,"Cloncurry Airport","Cloncurry","Australia","CNJ","YCCY",-20.6686,140.504,616,10,"O"
331,"Coconut Island Airport","Coconut Island","Australia","CNC","YCCT",-10.05,143.07,3,10,"O"
332,"Ceduna Airport","Ceduna","Australia","CED","YCDU",-32.1306,133.71,77,9.5,"O"
333,"Cunnamulla Airport","Cunnamulla","Australia","CMA","YCMU",-28.03,145.622,630,10,"O"
334,"Cooktown Airport","Cooktown","Australia","CTN","YCKN",-15.4447,145.184,26,10,"O"
335,"Cobar Airport","Cobar","Australia","CAZ","YCBA",-31.5383,145.794,724,10,"O"
336,"Darnley Island Airport","Darnley Island","Australia","NLF","YDNI",-9.58333,143.767,0,10,"O"
337,"Devonport Airport","Devonport","Australia","DPO","YDPO",-41.1697,146.43,33,10,"O"
338,"Hohenems","Hohenems","Austria","HOJ","LOIH",47.385,9.7,412,1,"E"
339,"Graz","Graz","Austria","GRZ","LOWG",46.991067,15.439628,1115,1,"E"
340,"Woerthersee International Airport","Klagenfurt","Austria","KLU","LOWK",46.642514,14.337739,452,1,"E"
341,"Innsbruck","Innsbruck","Austria","INN","LOWI",47.260219,11.343964,1906,1,"E"
342,"Schwechat","Vienna","Austria","VIE","LOWW",48.110278,16.569722,600,1,"E"
343,"Salzburg","Salzburg","Austria","SZG","LOWS",47.793304,13.004333,1411,1,"E"
344,"Linz","Linz","Austria","LNZ","LOWL",48.233219,14.187511,978,1,"E"
345,"Ganja Airport","Ganja","Azerbaijan","KVD","UBBG",40.7377,46.3176,1083,4,"E"
346,"Qabala Airport","Qabala","Azerbaijan","GBB","UBBQ",40.826667,47.7125,100,4,"E"
347,"Nakhchivan Airport","Nakhchivan","Azerbaijan","NAJ","UBBN",39.1888,45.4584,2863,3.5,"E"
348,"Lankaran International Airport","Lankaran","Azerbaijan","LLK","UBBL",38.746389,48.817778,30,4,"U"
349,"Zaqatala International Airport","Zaqatala","Azerbaijan","ZTU","UBBY",41.562222,46.667222,100,4,"E"
350,"Heydar Aliyev","Baku","Azerbaijan","GYD","UBBB",40.4675,50.046667,10,4,"E"
351,"Governors Harbour","Governor's Harbor","Bahamas","GHB","MYEM",25.284706,-76.331011,26,-5,"U"
352,"North Eleuthera","North Eleuthera","Bahamas","ELH","MYEH",25.474861,-76.683489,13,-5,"U"
353,"Stella Maris","Stella Maris","Bahamas","SML","MYLS",23.581444,-75.270475,10,-5,"U"
354,"Rock Sound","Rock Sound","Bahamas","RSD","MYER",24.8917,-76.177739,10,-5,"U"
355,"Deadmans Cay","Dead Man's Cay","Bahamas","LGI","MYLD",23.179014,-75.093597,9,-5,"U"
356,"Matthew Town","Matthew Town","Bahamas","IGA","MYIG",20.975,-73.666862,8,-5,"U"
357,"Arthurs Town Airport","Arthur's Town","Bahamas","ATC","MYCA",24.629417,-75.673775,18,-5,"U"
358,"Exuma Intl","Great Exuma","Bahamas","GGT","MYEF",23.562631,-75.877958,9,-5,"U"
359,"Congo Town Airport","Andros","Bahamas","COX","MYAK",24.158933,-77.589758,15,-5,"U"
360,"San Andros","San Andros","Bahamas","SAQ","MYAN",25.053814,-78.048997,5,-5,"U"
361,"Fresh Creek","Andros Town","Bahamas","ASD","MYAF",24.698283,-77.795611,5,-5,"U"
362,"Marsh Harbour","Marsh Harbor","Bahamas","MHH","MYAM",26.511406,-77.083472,6,-5,"U"
363,"Chub Cay","Chub Cay","Bahamas","CCZ","MYBC",25.417108,-77.88085,5,-5,"U"
364,"South Bimini","Alice Town","Bahamas","BIM","MYBS",25.699881,-79.264656,10,-5,"U"
365,"Spring Point","Spring Point","Bahamas","AXP","MYAP",22.441828,-73.970858,11,-5,"U"
366,"Treasure Cay","Treasure Cay","Bahamas","TCB","MYAT",26.745336,-77.391269,8,-5,"U"
367,"New Bight Airport","Cat Island","Bahamas","CAT","MYCB",24.315292,-75.452331,5,-5,"U"
368,"San Salvador","Cockburn Town","Bahamas","ZSA","MYSM",24.063275,-74.523967,24,-5,"U"
369,"Colonel Hill Airport","Colonel Hill","Bahamas","CRI","MYCI",22.745561,-74.182353,5,-5,"U"
370,"Nassau Paradise Island Airport","Nassau","Bahamas","PID","MYPI",25.083,-77.3,0,-5,"U"
371,"Grand Bahama Intl","Freeport","Bahamas","FPO","MYGF",26.558686,-78.695553,7,-5,"U"
372,"Mayaguana","Mayaguana","Bahamas","MYG","MYMM",22.379528,-73.0135,11,-5,"U"
373,"Lynden Pindling Intl","Nassau","Bahamas","NAS","MYNN",25.038958,-77.466231,16,-5,"U"
374,"Bahrain Intl","Bahrain","Bahrain","BAH","OBBI",26.270834,50.63361,6,3,"U"
375,"Zia Intl","Dhaka","Bangladesh","DAC","VGZR",23.843333,90.397781,30,6,"U"
376,"Shah Amanat Intl","Chittagong","Bangladesh","CGP","VGEG",22.249611,91.813286,12,6,"U"
377,"Osmany Intl","Sylhet Osmani","Bangladesh","ZYL","VGSY",24.963242,91.866783,50,6,"U"
378,"Jessore","Jessore","Bangladesh","JSR","VGJR",23.1838,89.160833,20,6,"U"
379,"Shah Mokhdum","Rajshahi","Bangladesh","RJH","VGRJ",24.437219,88.616511,64,6,"U"
380,"Saidpur","Saidpur","Bangladesh","SPD","VGSD",25.759228,88.908869,125,6,"U"
381,"Ishurdi","Ishurdi","Bangladesh","IRD","VGIS",24.1525,89.049446,45,6,"U"
382,"Coxs Bazar","Cox's Bazar","Bangladesh","CXB","VGCB",21.452194,91.963889,12,6,"U"
383,"Barisal Airport","Barisal","Bangladesh","BZL","VGBR",22.801,90.3012,23,6,"U"
384,"Grantley Adams Intl","Bridgetown","Barbados","BGI","TBPB",13.074603,-59.492456,169,-4,"U"
385,"Minsk 1","Minsk","Belarus","MHP","UMMM",53.864472,27.539683,748,3,"E"
386,"Minsk 2","Minsk 2","Belarus","MSQ","UMMS",53.882469,28.030731,670,3,"E"
387,"Gomel","Gomel","Belarus","GME","UMGG",52.527022,31.016692,471,3,"E"
388,"Mogilev Airport","Mogilev","Belarus","MVQ","UMOO",53.9549,30.0951,637,3,"E"
389,"Hrodno Airport","Hrodna","Belarus","GNA","UMMG",53.602,24.0538,443,3,"E"
390,"Brest","Brest","Belarus","BQT","UMBB",52.06,23.53,468,3,"E"
391,"Vitebsk","Vitebsk","Belarus","VTB","UMII",55.1265,30.349639,683,3,"E"
392,"Oostende","Ostend","Belgium","OST","EBOS",51.198889,2.862222,13,1,"E"
393,"Knokke-Heist Westkapelle Heliport","Knokke","Belgium","KNO","EBKW",51.3222,3.29306,0,-1,"U"
394,"Wevelgem","Kortrijk-vevelgem","Belgium","QKT","EBKT",50.817222,3.204722,64,1,"E"
395,"Liege","Liege","Belgium","LGG","EBLG",50.637417,5.443222,659,1,"E"
396,"Brussels Natl","Brussels","Belgium","BRU","EBBR",50.901389,4.484444,184,1,"E"
397,"Brussels South","Charleroi","Belgium","CRL","EBCI",50.459197,4.453817,614,1,"E"
398,"Deurne","Antwerp","Belgium","ANR","EBAW",51.189444,4.460278,39,1,"E"
399,"San Pedro","San Pedro","Belize","SPR","MZ10",17.913936,-87.971075,4,-6,"U"
400,"Philip S W Goldson Intl","Belize City","Belize","BZE","MZBZ",17.539144,-88.308203,15,-6,"U"
401,"Cadjehoun","Cotonou","Benin","COO","DBBB",6.357228,2.384353,19,1,"N"
402,"Bermuda Intl","Bermuda","Bermuda","BDA","TXKF",32.364042,-64.678703,12,-4,"U"
403,"Paro","Thimphu","Bhutan","PBH","VQPR",27.403192,89.424606,7332,6,"N"
404,"Yacuiba","Yacuiba","Bolivia","BYC","SLYA",-21.960925,-63.651669,2116,-3,"U"
405,"Puerto Rico Airport","Puerto Rico/Manuripi","Bolivia","PUR","SLPR",-11.1077,-67.5512,597,-4,"U"
406,"Juana Azurduy De Padilla","Sucre","Bolivia","SRE","SLSU",-19.007083,-65.288747,9527,-4,"U"
407,"Capitan Oriel Lea Plaza","Tarija","Bolivia","TJA","SLTJ",-21.555736,-64.701325,6084,-4,"U"
408,"Reyes Airport","Reyes","Bolivia","REY","SLRY",-14.3044,-67.3534,935,-4,"U"
409,"Viru Viru Intl","Santa Cruz","Bolivia","VVI","SLVR",-17.644756,-63.135364,1225,-4,"U"
410,"El Alto Intl","La Paz","Bolivia","LPB","SLLP",-16.513339,-68.192256,13325,-4,"U"
411,"Bermejo","Bermejo","Bolivia","BJO","SLBJ",-22.773336,-64.312881,1250,-3,"U"
412,"Jorge Wilsterman","Cochabamba","Bolivia","CBB","SLCB",-17.421058,-66.177114,8360,-4,"U"
413,"Capitan Nicolas Rojas","Potosi","Bolivia","POI","SLPO",-19.543069,-65.723706,12913,-4,"U"
414,"Tte Av Jorge Henrich Arauz","Trinidad","Bolivia","TDD","SLTR",-14.818739,-64.918019,509,-4,"U"
415,"Heroes Del Acre","Cobija","Bolivia","CIJ","SLCO",-11.040436,-68.782972,892,-4,"U"
416,"Tte De Av Salvador Ogaya G","Puerto Suarez","Bolivia","PSZ","SLPS",-18.975281,-57.820586,439,-4,"U"
417,"Rurrenabaque Airport","Rerrenabaque","Bolivia","RBQ","SLRQ",-14.4275,-67.498056,898,-3,"U"
418,"Capit?n de Av. Emilio Beltr?n Airport","Guayaramer?n","Bolivia","GYA","SLGY",-10.8206,-65.3456,557,-4,"U"
419,"Capit?n Av. Selin Zeitun Lopez Airport","Riberalta","Bolivia","RIB","SLRI",-11,-66,462,-4,"U"
420,"Uyuni Airport","Uyuni","Bolivia","UYU","SLUY",-20.466667,-66.833333,11990,-4,"U"
421,"Capit?n Av. German Quiroga G. Airport","San Borja","Bolivia","SRJ","SLSB",-14.8592,-66.7375,633,-4,"U"
422,"Mostar","Mostar","Bosnia and Herzegovina","OMO","LQMO",43.2829,17.845878,156,1,"E"
423,"Banja Luka International Airport","Banja Luka","Bosnia and Herzegovina","BNX","LQBK",44.941444,17.297501,400,1,"E"
424,"Sarajevo","Sarajevo","Bosnia and Herzegovina","SJJ","LQSA",43.824583,18.331467,1708,1,"E"
425,"Orapa Airport","Orapa","Botswana","ORP","FBOR",-21.2667,25.3167,3100,2,"U"
426,"Selebi Phikwe","Selebi-phikwe","Botswana","PKW","FBSP",-22.05835,27.828767,2925,2,"U"
427,"Francistown","Francistown","Botswana","FRW","FBFT",-21.159597,27.474525,3283,2,"U"
428,"Ghanzi Airport","Ghanzi","Botswana","GNZ","FBGZ",-21.6925,21.6581,3730,2,"U"
429,"Khwai River Lodge","Khwai River","Botswana","KHW","FBKR",-19.149166,23.7875,3000,2,"N"
430,"Jwaneng","Jwaneng","Botswana","JWA","FBJW",-24.602333,24.690971,3900,2,"U"
431,"Shakawe Airport","Shakawe","Botswana","SWX","FBSW",-18.3739,21.8326,3379,2,"U"
432,"Kasane","Kasane","Botswana","BBK","FBKE",-17.832875,25.1624,3289,2,"U"
433,"Maun","Maun","Botswana","MUB","FBMN",-19.972564,23.431086,3093,2,"U"
434,"Sir Seretse Khama Intl","Gaberone","Botswana","GBE","FBSK",-24.555225,25.918208,3299,2,"U"
435,"Limpopo Valley Airport","Tuli Lodge","Botswana","TLD","FBTL",-22.1892,29.1269,1772,2,"U"
436,"Guararapes Gilberto Freyre Intl","Recife","Brazil","REC","SBRF",-8.126794,-34.923039,33,-3,"S"
437,"Mario Ribeiro","Montes Claros","Brazil","MOC","SBMK",-16.706925,-43.8189,2191,-3,"S"
438,"Zumbi Dos Palmares","Maceio","Brazil","MCZ","SBMO",-9.510808,-35.791678,387,-3,"S"
439,"Senador Nilo Coelho","Petrolina","Brazil","PNZ","SBPL",-9.362411,-40.569097,1263,-3,"S"
440,"Governador Jorge Teixeira De Oliveira","Porto Velho","Brazil","PVH","SBPV",-8.709294,-63.902281,294,-4,"S"
441,"Plácido de Castro","Rio Branco","Brazil","RBR","SBRB",-9.583,-67.4836,633,-5,"S"
442,"Porto Nacional","Porto Nacional","Brazil","PNB","SBPN",-10.719417,-48.399736,870,-3,"S"
443,"Ponta Pora","Ponta Pora","Brazil","PMG","SBPP",-22.549639,-55.702614,2156,-4,"S"
444,"Macapa","Macapa","Brazil","MCP","SBMQ",0.050664,-51.072178,56,-3,"S"
445,"Salgado Filho","Porto Alegre","Brazil","POA","SBPA",-29.994428,-51.171428,11,-3,"S"
446,"Augusto Severo","Natal","Brazil","NAT","SBNT",-5.911417,-35.247717,169,-3,"S"
447,"Valenca Airport","Valenca","Brazil","VAL","SNVB",-13.2965,-38.9924,21,3,"S"
448,"Caruaru Airport","Caruaru","Brazil","CAU","SNRU",-8.28239,-36.0135,1891,-3,"S"
449,"Dix Sept Rosado Airport","Mossoro","Brazil","MVF","SBMW",-5.20192,-37.3643,76,-3,"S"
450,"Aeroclube de Nova Iguacu","Nova Iguacu","Brazil","QNV","SDNY",-22.7453,-43.4603,164,-3,"S"
451,"Lauro Kurtz","Passo Fundo","Brazil","PFB","SBPF",-28.243989,-52.326558,2376,-3,"S"
452,"Pelotas","Pelotas","Brazil","PET","SBPK",-31.718353,-52.327689,59,-3,"S"
453,"Manicore","Manicore","Brazil","MNX","SBMY",-5.811381,-61.278319,174,-4,"S"
454,"Pocos De Caldas","Pocos De Caldas","Brazil","POO","SBPC",-21.843014,-46.567917,4135,-3,"S"
455,"Santo Angelo","Santo Angelo","Brazil","GEL","SBNM",-28.281683,-54.169139,1056,-3,"S"
456,"Ministro Victor Konder Intl","Navegantes","Brazil","NVT","SBNF",-26.879999,-48.65139,18,-3,"S"
457,"Rio Grande","Rio Grande","Brazil","RIG","SBRG",-32.082617,-52.166542,27,-3,"S"
458,"Major Brigadeiro Trompowsky","Varginha","Brazil","VAG","SBVG",-21.590067,-45.473342,3028,-3,"S"
459,"Vilhena","Vilhena","Brazil","BVH","SBVH",-12.694375,-60.098269,2018,-4,"S"
460,"Goiabeiras","Vitoria","Brazil","VIX","SBVT",-20.258056,-40.286389,11,-3,"S"
461,"Uberaba","Uberaba","Brazil","UBA","SBUR",-19.765,-47.964778,2655,-3,"S"
462,"Paulo Afonso","Paulo Alfonso","Brazil","PAV","SBUF",-9.400878,-38.250575,883,-3,"S"
463,"Rubem Berta","Uruguaiana","Brazil","URG","SBUG",-29.782178,-57.038189,256,-3,"S"
464,"Ten Cel Av Cesar Bombonato","Uberlandia","Brazil","UDI","SBUL",-18.882844,-48.225594,3094,-3,"S"
465,"Toledo Airport","Toledo","Brazil","TOW","SBTD",-24.6863,-53.6975,1843,-3,"S"
466,"Mucuri Airport","Mucuri","Brazil","MVS","SNMU",-18.0489,-39.8642,276,-3,"S"
467,"Ji-Paran? Airport","Ji-Paran?","Brazil","JPR","SWJI",-10.8708,-61.8465,598,-4,"S"
468,"Santa Maria Airport","Santa Maria","Brazil","RIA","SBSM",-29.711358,-53.688153,287,-3,"S"
469,"Campo Fontenelle","Piracununga","Brazil","QPS","SBYS",-21.984561,-47.334764,1968,-3,"S"
470,"Orlando Bezerra de Menezes Airport","Juazeiro Do Norte","Brazil","JDO","SBJU",-7.218958,-39.2701,1392,-3,"S"
471,"Chapada Diamantina Airport","Len??is","Brazil","LEC","SBLE",-12.4823,-41.277,1676,-3,"S"
472,"Tucurui","Tucurui","Brazil","TUR","SBTU",-3.786008,-49.720267,830,-3,"S"
473,"Marechal Cunha Machado Intl","Sao Luis","Brazil","SLZ","SBSL",-2.585361,-44.234139,178,-3,"S"
474,"Congonhas","Sao Paulo","Brazil","CGH","SBSP",-23.626692,-46.655375,2631,-3,"S"
475,"Sao Jose Do Rio Preto","Sao Jose Do Rio Preto","Brazil","SJP","SBSR",-20.816567,-49.406511,1784,-3,"S"
476,"Professor Urbano Ernesto Stumpf","Sao Jose Dos Campos","Brazil","SJK","SBSJ",-23.228172,-45.862739,2120,-3,"S"
477,"Santos Dumont","Rio de Janeiro","Brazil","SDU","SBRJ",-22.910461,-43.163133,11,-3,"S"
478,"Leite Lopes","Ribeirao Preto","Brazil","RAO","SBRP",-21.134167,-47.774189,1802,-3,"S"
479,"Santa Cruz","Rio de Janeiro","Brazil","STU","SBSC",-22.93235,-43.719092,10,-3,"S"
480,"Senador Petronio Portella","Teresina","Brazil","THE","SBTE",-5.059942,-42.823478,219,-3,"S"
481,"Tefe","Tefe","Brazil","TFF","SBTF",-3.382944,-64.724056,184,-4,"S"
482,"Tabatinga","Tabatinga","Brazil","TBT","SBTT",-4.255669,-69.935828,279,-4,"S"
483,"Trombetas","Oriximina","Brazil","TMT","SBTB",-1.4896,-56.396803,287,-4,"S"
484,"Base Aerea De Santos","Santos","Brazil","SSZ","SBST",-23.925206,-46.2875,10,-3,"S"
485,"Carajas Airport","Parauapebas","Brazil","CKS","SBCJ",-6.11781,-50.0035,2064,-3,"S"
486,"Deputado Luis Eduardo Magalhaes","Salvador","Brazil","SSA","SBSV",-12.910994,-38.331044,64,-3,"S"
487,"Regional De Maringa Silvio Name Junior","Maringa","Brazil","MGF","SBMG",-23.476392,-52.016406,1788,-3,"S"
488,"Corumba Intl","Corumba","Brazil","CMG","SBCR",-19.011931,-57.673053,461,-4,"S"
489,"Bartolomeu Lisandro","Campos","Brazil","CAW","SBCP",-21.698333,-41.301669,57,-3,"S"
490,"Afonso Pena","Curitiba","Brazil","CWB","SBCT",-25.528475,-49.175775,2988,-3,"S"
491,"Campo Dos Bugres","Caxias Do Sul","Brazil","CXJ","SBCX",-29.197064,-51.187536,2472,-3,"S"
492,"Caravelas","Caravelas","Brazil","CRQ","SBCV",-17.652283,-39.253069,36,-3,"S"
493,"Campo Grande","Campo Grande","Brazil","CGR","SBCG",-20.468667,-54.6725,1833,-4,"S"
494,"Tancredo Neves Intl","Belo Horizonte","Brazil","CNF","SBCF",-19.63375,-43.968856,2715,-3,"S"
495,"Chapeco","Chapeco","Brazil","XAP","SBCH",-27.134219,-52.656553,2146,-3,"S"
496,"Forquilhinha","Criciuma","Brazil","CCM","SBCM",-28.725817,-49.424739,93,-3,"S"
497,"Carolina","Carolina","Brazil","CLN","SBCI",-7.320444,-47.458667,565,-3,"S"
498,"Gurupi Airport","Gurupi","Brazil","GRP","SWGI",-11.728889,-49.068889,10,-3,"S"
499,"Sinop Airport","Sinop","Brazil","OPS","SWSI",-11.885,-55.586,10,-4,"S"
500,"Campo Alegre Airport","Santana do Araguaia","Brazil","CMP","SNKE",-9.505,-50.625,525,-3,"S"
501,"Soure Airport","Soure","Brazil","SFK","SNSW",-0.716944,-48.522778,33,-3,"S"
502,"Breves Airport","Breves","Brazil","BVS","SNVS",-1.681944,-50.48,131,-3,"S"
503,"Cruzeiro do Sul","Cruzeiro do Sul","Brazil","CZS","SBCZ",-7.599906,-72.769489,637,-5,"S"
504,"Marechal Rondon","Cuiaba","Brazil","CGB","SBCY",-15.652931,-56.116719,617,-4,"S"
505,"Presidente Prudente","President Prudente","Brazil","PPB","SBDN",-22.175056,-51.424639,1477,-3,"S"
506,"Cabo Frio International Airport","Cabo Frio","Brazil","CFB","SBCB",-22.921667,-42.074167,14,-3,"S"
507,"Eduardo Gomes Intl","Manaus","Brazil","MAO","SBEG",-3.038611,-60.049721,264,-4,"S"
508,"Cascavel","Cascavel","Brazil","CAC","SBCA",-25.000339,-53.500764,2473,-3,"S"
509,"Governador Valadares Airport","Governador Valadares","Brazil","GVR","SBGV",-18.8952,-41.9822,561,-3,"S"
510,"Erechim Airport","Erechim","Brazil","ERM","SSER",-27.6619,-52.2683,2498,-3,"S"
511,"Amarais Airport","Campinas","Brazil","CPQ","SDAM",-22.8592,-47.1082,2008,-4,"S"
512,"Araraquara","Araracuara","Brazil","AQA","SBAQ",-21.812,-48.133028,2334,-3,"S"
513,"Conceicao Do Araguaia","Conceicao Do Araguaia","Brazil","CDJ","SBAA",-8.348347,-49.301528,653,-3,"S"
514,"Mar?lia Airport","Mar?lia","Brazil","MII","SBML",-22.196892,-49.9264,2122,-3,"S"
515,"Maca? Airport","Maca?","Brazil","MEA","SBME",-22.343,-41.766,8,-3,"S"
516,"Vit?ria da Conquista Airport","Vit?ria Da Conquista","Brazil","VDC","SBQV",-14.862761,-40.863106,2998,-3,"S"
517,"Santa Rosa Airport","Santa Rosa","Brazil","SRA","SSZR",-27.9067,-54.5204,984,-3,"S"
518,"Sorocaba Airport","Sorocaba","Brazil","SOD","SDCO",-23.478,-47.49,2077,-3,"S"
519,"Bacacheri","Curitiba","Brazil","BFH","SBBI",-25.405078,-49.232036,3057,-3,"S"
520,"Pampulha Carlos Drummond De Andrade","Belo Horizonte","Brazil","PLU","SBBH",-19.851181,-43.950628,2589,-3,"S"
521,"Presidente Juscelino Kubitschek","Brasilia","Brazil","BSB","SBBR",-15.8711,-47.918625,3479,-3,"S"
522,"Boa Vista","Boa Vista","Brazil","BVB","SBBV",2.846311,-60.690069,276,-4,"S"
523,"Bauru","Bauru","Brazil","BAU","SBBU",-22.345042,-49.0538,2025,-3,"S"
524,"Alta Floresta","Alta Floresta","Brazil","AFL","SBAT",-9.866092,-56.106206,947,-4,"S"
525,"Santa Maria","Aracaju","Brazil","AJU","SBAR",-10.984,-37.070333,23,-3,"S"
526,"Aracatuba","Aracatuba","Brazil","ARU","SBAU",-21.141342,-50.424722,1361,-3,"S"
527,"Comandante Gustavo Kraemer","Bage","Brazil","BGX","SBBG",-31.390528,-54.112244,600,-3,"S"
528,"Val De Cans Intl","Belem","Brazil","BEL","SBBE",-1.37925,-48.476292,54,-3,"S"
529,"Guarulhos Gov Andre Franco Montouro","Sao Paulo","Brazil","GRU","SBGR",-23.432075,-46.469511,2459,-3,"S"
530,"Santa Genoveva","Goiania","Brazil","GYN","SBGO",-16.632033,-49.220686,2450,-3,"S"
531,"Altamira","Altamira","Brazil","ATM","SBHT",-3.253906,-52.253978,368,-3,"S"
532,"Usiminas","Ipatinga","Brazil","IPN","SBIP",-19.470722,-42.487583,784,-3,"S"
533,"Ilheus","Ilheus","Brazil","IOS","SBIL",-14.815964,-39.033197,15,-3,"S"
534,"Hercilio Luz","Florianopolis","Brazil","FLN","SBFL",-27.670489,-48.547181,20,-3,"S"
535,"Guanambi Airport","Guanambi","Brazil","GNM","SNGI",-14.216667,-42.783333,500,-3,"S"
536,"Fernando De Noronha","Fernando Do Noronha","Brazil","FEN","SBFN",-3.854928,-32.423336,193,-2,"S"
537,"Galeao Antonio Carlos Jobim","Rio de Janeiro","Brazil","GIG","SBGL",-22.808903,-43.243647,28,-3,"S"
538,"Pinto Martins Intl","Fortaleza","Brazil","FOR","SBFZ",-3.776283,-38.532556,82,-3,"S"
539,"Lins","Lins","Brazil","LIP","SBLN",-21.664039,-49.730519,1575,-3,"S"
540,"Viracopos","Campinas","Brazil","VCP","SBKP",-23.0075,-47.134444,2170,-3,"S"
541,"Londrina","Londrina","Brazil","LDB","SBLO",-23.333625,-51.130072,1867,-3,"S"
542,"Maraba","Maraba","Brazil","MAB","SBMA",-5.368589,-49.138025,357,-3,"S"
543,"Bom Jesus Da Lapa","Bom Jesus Da Lapa","Brazil","LAZ","SBLP",-13.262086,-43.408114,1454,-3,"S"
544,"Francisco De Assis","Juiz De Fora","Brazil","JDF","SBJF",-21.7915,-43.386778,2989,-3,"S"
545,"Prefeito Renato Moreira","Imperatriz","Brazil","IMP","SBIZ",-5.531292,-47.46005,431,-3,"S"
546,"Presidente Castro Pinto","Joao Pessoa","Brazil","JPA","SBJP",-7.148381,-34.950681,215,-3,"S"
547,"Presidente Joao Suassuna","Campina Grande","Brazil","CPV","SBKG",-7.269917,-35.896364,1646,-3,"S"
548,"Lauro Carneiro De Loyola","Joinville","Brazil","JOI","SBJV",-26.224453,-48.797364,15,-3,"S"
549,"Diamantino Airport","Diamantino","Brazil","DMT","SWDM",-14.408889,-56.445833,1837,-4,"S"
550,"Novo Aripuana Airport","Novo Aripuana","Brazil","NVP","SWNA",-5.121389,-60.380556,500,-4,"S"
551,"Araguaina Airport","Araguaina","Brazil","AUX","SWGN",-7.228333,-48.240833,771,-3,"S"
552,"Bom Futuro Airport","Lucas do Rio Verde","Brazil","LVR","SWFE",-13.05,-55.910833,500,-4,"S"
553,"Dourados Airport","Dourados","Brazil","DOU","SSDO",-22.220833,-54.805833,1433,-3,"S"
554,"Franca Airport","Franca","Brazil","FRC","SIMK",-20.538611,-47.400833,1040,-3,"S"
555,"Barreiras Airport","Barreiras","Brazil","BRA","SNBR",-12.083333,-45,1356,-3,"S"
556,"Julio Belem Airport","Parintins","Brazil","PIN","SWPI",-2.627778,-56.735833,500,-4,"S"
557,"Confresa Airport","Santa Terezinha","Brazil","STZ","SWST",-10.47,-50.502778,650,-4,"S"
558,"Minacu Airport","Minacu","Brazil","MQH","SBMC",-13.526944,-48.220556,1053,-3,"S"
559,"Cataratas Intl","Foz Do Iguacu","Brazil","IGU","SBFI",-25.59615,-54.487206,787,-3,"S"
560,"Maues Airport","Maues","Brazil","MBZ","SWMW",-3.383611,-57.718611,500,-4,"S"
561,"Araxa Airport","Araxa","Brazil","AAX","SBAX",-19.563056,-46.960278,3276,-3,"S"
562,"Borba Airport","Borba","Brazil","RBB","SWBR",-4.387778,-59.593889,500,-4,"S"
563,"Barcelos Airport","Barcelos","Brazil","BAZ","SWBC",-0.975,-62.923889,500,-4,"S"
564,"Coari Airport","Coari","Brazil","CIZ","SWKO",-4.085,-63.140833,33,-4,"S"
565,"Rondonopolis Airport","Rondonopolis","Brazil","ROO","SWRD",-16.466667,-54.633333,500,-4,"S"
566,"Labrea Airport","Labrea","Brazil","LBR","SWLB",-7.258889,-64.797778,225,-4,"S"
567,"Tancredo Thomaz de Faria Airport","Guarapuava","Brazil","GPB","SBGU",-25.383333,-51.45,200,-3,"S"
568,"General leite de Castro Airport","Rio Verde","Brazil","RVD","SWLC",-17.790278,-50.918333,2244,-3,"S"
569,"Joacaba Airport","Joacaba","Brazil","JCB","SSJA",-27.172778,-51.500833,1713,-3,"S"
570,"Confresa Airport","Confresa","Brazil","CFO","SJHG",-10.633611,-51.567222,250,-4,"S"
571,"Orlando de Carvalho Airport","Umuarama","Brazil","UMU","SSUM",-23.798611,-53.313611,1558,-4,"S"
572,"Aeroporto Blumenau","BLUMENAU","Brazil","BNU","SSBL",-26.834239,-49.091696,70,-3,"S"
573,"Santarem","Santarem","Brazil","STM","SBSN",-2.422431,-54.792789,198,-4,"S"
574,"Concordia Airport","Concordia","Brazil","CCI","SSCK",-27.180556,-52.052778,2461,-4,"S"
575,"Paulo Abdala Airport","Francisco Beltrao","Brazil","FBE","SSFB",-26.059167,-53.063333,2100,-4,"S"
576,"Senadora Eunice Micheles Airport","Sao Paulo de Olivenca","Brazil","OLC","SDCG",-3.465556,-68.918889,335,-4,"S"
577,"Redencao Airport","Redencao","Brazil","RDC","SNDC",-8.033333,-49.98,669,-4,"S"
578,"Tapuruquara Airport","Santa Isabel do Rio Negro","Brazil","IRZ","SWTP",-0.416944,-65.033889,223,-4,"S"
579,"Diamantina Airport","Diamantina","Brazil","DTI","SNDT",-18.231944,-43.650278,4446,-4,"S"
580,"Zona da Mata Regional Airport","Juiz de Fora","Brazil","IZA","SDZY",-21.5130558014,-43.1730575562,1348,-3,"S"
581,"Fonte Boa Airport","Fonte Boa","Brazil","FBA","SWOB",-2.5325,-66.083333,207,-4,"S"
582,"Carlos Alberto da Costa Neves Airport","Cacador","Brazil","CFC","SBCD",-26.788333,-50.939722,3376,-4,"S"
583,"Carauari Airport","Carauari","Brazil","CAF","SWCA",-4.871389,-66.8975,354,-4,"S"
584,"Caldas Novas","Caldas Novas","Brazil","CLV","SBCN",-17.7267,-48.6114,2247,-3,"S"
585,"Sao Felix do Xingu Airport","Sao Felix do Xingu","Brazil","SXX","SNFX",-6.641389,-51.952222,656,-4,"S"
586,"Bonito Airport","Bointo","Brazil","BYO","SJDB",-21.247222,-56.4525,1180,-4,"S"
587,"Sao Felix do Araguaia Airport","Sao Felix do Araguaia","Brazil","SXO","SWFX",-11.6325,-50.689444,650,-4,"S"
588,"Ourilandia do Norte Airport","Ourilandia do Norte","Brazil","OIA","SDOW",-6.763056,-51.05,229,-4,"S"
589,"Bauru-Arealva","Bauru","Brazil","JTC","SJTC",-22.157778,-49.068333,594,-4,"S"
590,"Patos de Minas Airport","Patos de Minas","Brazil","POJ","SNPD",-18.672778,-46.491111,851,-4,"S"
591,"Amaury Feitosa Tomaz Airport","Eirunepe","Brazil","ERN","SWEI",-6.639444,-69.879722,412,-4,"S"
592,"Aeroporto de Porto Seguro","Porto Seguro","Brazil","BPS","SBPS",-16.438611,-39.080833,167,-3,"S"
593,"Palmas","Palmas","Brazil","PMW","SBPJ",-10.241667,-48.35278,774,-3,"S"
594,"Oriximina Airport","Oriximina","Brazil","ORX","SNOX",-1.714167,-55.836111,262,-4,"S"
595,"Humaita Airport","Humaita","Brazil","HUW","SWHT",-7.532222,-63.072222,230,-4,"S"
596,"Una-Comandatuba Airport","Una","Brazil","UNA","SBTC",-15.355278,-38.998889,20,-4,"S"
597,"Terrance B Lettsome Intl","Tortola","British Virgin Islands","EIS","TUPJ",18.444834,-64.542975,15,-4,"U"
598,"Virgin Gorda Airport","Spanish Town","British Virgin Islands","VIJ","TUPW",18.4464,-64.4275,9,-4,"U"
599,"Brunei Intl","Bandar Seri Begawan","Brunei","BWN","WBSB",4.9442,114.928353,73,8,"U"
600,"Uzundzhovo","Haskovo","Bulgaria","HKV","LB14",41.976375,25.589817,160,2,"E"
601,"Burgas","Bourgas","Bulgaria","BOJ","LBBG",42.569583,27.515236,135,2,"E"
602,"Gorna Oryahovitsa","Gorna Orechovica","Bulgaria","GOZ","LBGO",43.151444,25.712889,285,2,"E"
603,"Plovdiv","Plovdiv","Bulgaria","PDV","LBPD",42.067806,24.850833,597,2,"E"
604,"Sofia","Sofia","Bulgaria","SOF","LBSF",42.695194,23.406167,1742,2,"E"
605,"Varna","Varna","Bulgaria","VAR","LBWN",43.232072,27.825106,230,2,"E"
606,"Bobo Dioulasso","Bobo-dioulasso","Burkina Faso","BOY","DFOO",11.160056,-4.330969,1511,0,"N"
607,"Ouagadougou","Ouagadougou","Burkina Faso","OUA","DFFD",12.353194,-1.512417,1037,0,"N"
608,"Sittwe","Sittwe","Burma","AKY","VYSW",20.132708,92.872628,27,6.5,"U"
609,"Heho","Heho","Burma","HEH","VYHH",20.747036,96.792044,3858,6.5,"U"
610,"Khamti","Khamti","Burma","KHM","VYKI",25.988333,95.674444,6000,6.5,"U"
611,"Banmaw Airport","Banmaw","Burma","BMO","VYBM",24.269033,97.246153,370,6.5,"U"
612,"Lashio","Lashio","Burma","LSH","VYLS",22.977881,97.752183,2450,6.5,"U"
613,"Kyaukpyu","Kyaukpyu","Burma","KYP","VYKP",19.426447,93.534836,20,6.5,"U"
614,"Kengtung","Kengtung","Burma","KET","VYKG",21.301611,99.635997,2798,6.5,"U"
615,"Naypyidaw","Naypyidaw","Burma","ELA","VYEL",19.6235,96.201028,302,6.5,"U"
616,"Ye","Ye","Burma","XYE","VYYE",15.25,97.85,25,6.5,"U"
617,"Pakhokku Airport","Pakhokku","Burma","PKK","VYPU",21.3333,95.1,151,6.5,"U"
618,"NAYPYITAW","NAYPYITAW","Burma","NYT","VYNT",19.374,96.121,294,6.5,"N"
619,"Thandwe","Thandwe","Burma","SNW","VYTD",18.460731,94.300119,20,6.5,"U"
620,"Tachileik","Tachilek","Burma","THL","VYTL",20.483831,99.935353,1280,7,"U"
621,"Magwe","Magwe","Burma","MWQ","VYMW",20.165453,94.941185,275,6.5,"U"
622,"Mong Hsat","Mong Hsat","Burma","MOG","VYMS",20.516758,99.256825,1875,6.5,"U"
623,"Mawlamyine Airport","Mawlamyine","Burma","MNU","VYMM",16.444747,97.660669,52,6.5,"U"
624,"Pathein Airport","Pathein","Burma","BSX","VYPN",16.815233,94.779911,20,6.5,"U"
625,"Loikaw Airport","Loikaw","Burma","LIW","VYLK",19.691494,97.214825,2940,6.5,"U"
626,"Putao","Putao","Burma","PBU","VYPT",27.329922,97.426269,1500,6.5,"U"
627,"Bagan Intl","Nyuang U","Burma","NYU","VYBR",21.173833266,94.9246666,290,6.5,"U"
628,"Yangon Intl","Yangon","Burma","RGN","VYYY",16.907305,96.133222,109,6.5,"U"
629,"Mandalay Intl","Mandalay","Burma","MDL","VYMD",21.702156,95.977928,300,6.5,"U"
630,"Kawthoung Airport","Kawthoung","Burma","KAW","VYKT",10.049258,98.538006,180,7,"U"
631,"Myeik","Myeik","Burma","MGZ","VYME",12.439797,98.621478,75,6.5,"U"
632,"Dawei Airport","Dawei","Burma","TVY","VYDW",14.103886,98.203636,84,6.5,"U"
633,"Myitkyina","Myitkyina","Burma","MYT","VYMK",25.383636,97.351919,475,6.5,"U"
634,"Bujumbura Intl","Bujumbura","Burundi","BJM","HBBA",-3.324019,29.318519,2582,2,"U"
635,"Battambang Airport","Battambang","Cambodia","BBM","VDBG",13.0956,103.224,59,7,"U"
636,"Sihanoukville","Sihanoukville","Cambodia","KOS","VDSV",10.579686,103.636828,33,7,"N"
637,"Phnom Penh Intl","Phnom-penh","Cambodia","PNH","VDPP",11.546556,104.844139,40,7,"U"
638,"Siem Reap","Siem-reap","Cambodia","REP","VDSR",13.410666,103.81284,60,7,"U"
639,"Yaounde Nsimalen","Yaounde","Cameroon","NSI","FKYS",3.722556,11.553269,2278,1,"N"
640,"Salak","Maroua","Cameroon","MVR","FKKL",10.451392,14.257361,1390,1,"N"
641,"Foumban Nkounja","Foumban","Cameroon","FOM","FKKM",5.636919,10.750817,3963,1,"N"
642,"Tiko","Tiko","Cameroon","TKC","FKKC",4.089192,9.360528,151,1,"N"
643,"Douala","Douala","Cameroon","DLA","FKKD",4.006081,9.719481,33,1,"N"
644,"Ngaoundere","N'gaoundere","Cameroon","NGE","FKKN",7.357011,13.559242,3655,1,"N"
645,"Bafoussam","Bafoussam","Cameroon","BFX","FKKU",5.536919,10.354583,4347,1,"N"
646,"Bamenda","Bamenda","Cameroon","BPC","FKKV",6.039239,10.122639,4065,1,"N"
647,"Yaounde Ville","Yaounde","Cameroon","YAO","FKKY",3.836039,11.523461,2464,1,"N"
648,"Garoua","Garoua","Cameroon","GOU","FKKR",9.335892,13.370103,794,1,"N"
649,"Lethbridge","Lethbridge","Canada","YQL","CYQL",49.630278,-112.799722,3047,-7,"A"
650,"Kenora","Kenora","Canada","YQK","CYQK",49.788334,-94.363056,1332,-6,"A"
651,"Greater Moncton Intl","Moncton","Canada","YQM","CYQM",46.112221,-64.678611,232,-4,"A"
652,"Thunder Bay","Thunder Bay","Canada","YQT","CYQT",48.371944,-89.323889,653,-5,"A"
653,"Regina Intl","Regina","Canada","YQR","CYQR",50.431944,-104.665833,1894,-6,"N"
654,"Comox","Comox","Canada","YQQ","CYQQ",49.710833,-124.886667,84,-8,"A"
655,"Sandspit","Sandspit","Canada","YZP","CYZP",53.254333,-131.813833,21,-8,"A"
656,"Kangiqsujuaq - Wakeham Bay Airport","Kangiqsujuaq","Canada","YWB","CYKG",61.588611,-71.929444,501,-6,"A"
657,"Postville Airport","Postville","Canada","YSO","CCD4",54.910278,-59.785278,223,-4,"A"
658,"Chris Hadfield","Sarnia","Canada","YZR","CYZR",42.999444,-82.308889,594,-5,"A"
659,"Kimmirut Airport","Kimmirut","Canada","YLC","CYLC",62.85,-69.8833,175,-5,"A"
660,"Arctic Bay Airport","Arctic Bay","Canada","YAB","CJX7",73.006389,-85.047222,72,-5,"A"
661,"Port Hardy","Port Hardy","Canada","YZT","CYZT",50.680556,-127.366667,71,-8,"A"
662,"Riviere Du Loup","Riviere Du Loup","Canada","YRI","CYRI",47.764444,-69.584722,427,-5,"A"
663,"Resolute Bay","Resolute","Canada","YRB","CYRB",74.716944,-94.969444,215,-6,"A"
664,"Rimouski Airport","Rimouski","Canada","YXK","CYXK",48.478056,-68.496944,82,-6,"A"
665,"Havre Saint-Pierre Airport","Havre-Saint-Pierre","Canada","YGV","CYGV",50.281944,-63.611389,124,-4,"A"
666,"Alma Airport","Alma","Canada","YTF","CYTF",48.508611,-71.641389,449,-6,"A"
667,"North Battleford","North Battleford","Canada","YQW","CYQW",52.769167,-108.24361,1799,-6,"N"
668,"Yorkton Muni","Yorkton","Canada","YQV","CYQV",51.264721,-102.461667,1635,-6,"N"
669,"Grande Prairie","Grande Prairie","Canada","YQU","CYQU",55.179722,-118.885,2195,-7,"A"
670,"Quesnel","Quesnel","Canada","YQZ","CYQZ",53.026112,-122.510278,1789,-8,"A"
671,"Sydney","Sydney","Canada","YQY","CYQY",46.161388,-60.047779,203,-4,"A"
672,"Gander Intl","Gander","Canada","YQX","CYQX",48.936944,-54.568056,496,-4,"A"
673,"Oxford House Airport","Oxford House","Canada","YOH","CYOH",54.9333,-95.2789,663,-6,"A"
674,"Tasiujaq Airport","Tasiujaq","Canada","YTQ","CYTQ",58.6678,-69.9558,122,-5,"A"
675,"Puvirnituq Airport","Puvirnituq","Canada","YPX","CYPX",60.0506,-77.2869,74,-5,"A"
676,"Rankin Inlet","Rankin Inlet","Canada","YRT","CYRT",62.81139,-92.115833,94,-6,"A"
677,"Rocky Mountain House","Rocky Mountain House","Canada","YRM","CYRM",52.429722,-114.904167,3244,-7,"A"
678,"Faro","Faro","Canada","ZFA","CZFA",62.2075,-133.375833,2351,-8,"A"
679,"Pikangikum Airport","Pikangikum","Canada","YPM","CYPM",51.8197,-93.9733,1114,-6,"A"
680,"Burwash","Burwash","Canada","YDB","CYDB",61.371111,-139.040556,2647,-8,"A"
681,"Peawanuck Airport","Peawanuck","Canada","YPO","CYPO",54.9881,-85.4433,173,-5,"A"
682,"Roberval","Roberval","Canada","YRJ","CYRJ",48.52,-72.265556,586,-5,"A"
683,"Inukjuak Airport","Inukjuak","Canada","YPH","CYPH",58.4719,-78.0769,83,-5,"A"
684,"Dawson City","Dawson","Canada","YDA","CYDA",64.043056,-139.127778,1215,-8,"A"
685,"Sudbury","Sudbury","Canada","YSB","CYSB",46.625,-80.798889,1141,-5,"A"
686,"Mary's Harbour Airport","Mary's Harbour","Canada","YMH","CYMH",52.3028,-55.8472,38,-4,"A"
687,"Chapais Airport","Chibougamau","Canada","YMT","CYMT",49.7719,-74.5281,1270,-5,"A"
688,"Umiujaq Airport","Umiujaq","Canada","YUD","CYMU",56.5361,-76.5183,250,-5,"A"
689,"Lansdowne House Airport","Lansdowne House","Canada","YLH","CYLH",52.1956,-87.9342,834,-5,"A"
690,"Lutselk'e Airport","Lutselk'e","Canada","YSG","CYLK",62.4183,-110.682,596,-7,"A"
691,"Kangiqsualujjuaq (Georges River) Airport","Kangiqsualujjuaq","Canada","XGR","CYLU",58.7114,-65.9928,215,-5,"A"
692,"Points North Landing Airport","Points North Landing","Canada","YNL","CYNL",58.2767,-104.082,1605,-6,"N"
693,"Fairmont Hot Springs","Coral Harbour","Canada","YZS","CYCZ",64.193333,-83.359444,2661,-7,"A"
694,"Bella Coola Airport","Bella Coola","Canada","QBC","CYBD",52.3875,-126.596,117,-8,"A"
695,"Clyde River","Clyde River","Canada","YCY","CYCY",70.486111,-68.516667,87,-5,"A"
696,"Wemindji Airport","Wemindji","Canada","YNC","CYNC",53.0106,-78.8311,66,-5,"A"
697,"Norway House Airport","Norway House","Canada","YNE","CYNE",53.9583,-97.8442,734,-6,"A"
698,"Riviere Rouge - Mont-Tremblant International Inc. Airport","Mont-Tremblant","Canada","YTM","CYFJ",46.409444,-74.78,827,-5,"A"
699,"Brantford","Brantford","Canada","YFD","CYFD",43.131389,-80.3425,815,-5,"A"
700,"Deer Lake","Deer Lake","Canada","YDF","CYDF",49.210833,-57.391388,72,-4,"A"
701,"Lester B Pearson Intl","Toronto","Canada","YYZ","CYYZ",43.677223,-79.630556,569,-5,"A"
702,"Downsview","Toronto","Canada","YZD","CYZD",43.7425,-79.465556,652,-5,"A"
703,"Gore Bay Manitoulin","Gore Bay","Canada","YZE","CYZE",45.885277,-82.567778,635,-5,"A"
704,"Dease Lake","Dease Lake","Canada","YDL","CYDL",58.422222,-130.032222,2600,-8,"A"
705,"Dauphin Barker","Dauphin","Canada","YDN","CYDN",51.100834,-100.0525,999,-6,"A"
706,"Dawson Creek","Dawson Creek","Canada","YDQ","CYDQ",55.742333,-120.183,2148,-7,"A"
707,"Yellowknife","Yellowknife","Canada","YZF","CYZF",62.462778,-114.440278,675,-7,"A"
708,"Slave Lake","Slave Lake","Canada","YZH","CYZH",55.293056,-114.777222,1912,-7,"A"
709,"The Pas Airport","The Pas","Canada","YQD","CYQD",53.9714,-101.091,887,-6,"A"
710,"Mont Joli","Mont Joli","Canada","YYY","CYYY",48.608612,-68.208056,172,-5,"A"
711,"Powell River Airport","Powell River","Canada","YPW","CYPW",49.8342,-124.5,425,-8,"A"
712,"Princeton","Princeton","Canada","YDC","CYDC",49.468056,-120.511389,2298,-8,"A"
713,"Lynn Lake","Lynn Lake","Canada","YYL","CYYL",56.863888,-101.07611,1170,-6,"A"
714,"Seal Cove Seaplane Base","Prince Rupert","Canada","ZSW","CZSW",54.3333,-130.283,0,-8,"A"
715,"Berens River","Berens River","Canada","YBV","CYBV",52.358889,-97.018333,728,-6,"A"
716,"Seaplane Base","Port Simpson","Canada","YPI","CYPI",54.566667,-130.433333,0,-8,"A"
717,"St Johns Intl","St. John's","Canada","YYT","CYYT",47.61861,-52.751945,461,-3.5,"A"
718,"Kapuskasing","Kapuskasing","Canada","YYU","CYYU",49.413889,-82.4675,743,-5,"A"
719,"Armstrong","Armstrong","Canada","YYW","CYYW",50.290279,-88.909721,1058,-5,"A"
720,"Swift Current","Swift Current","Canada","YYN","CYYN",50.291944,-107.690556,2680,-6,"N"
721,"Churchill","Churchill","Canada","YYQ","CYYQ",58.739167,-94.065,94,-6,"A"
722,"Goose Bay","Goose Bay","Canada","YYR","CYYR",53.319168,-60.425833,160,-4,"A"
723,"Watson Lake","Watson Lake","Canada","YQH","CYQH",60.116389,-128.8225,2255,-8,"A"
724,"St Jean","St. Jean","Canada","YJN","CYJN",45.294445,-73.281111,136,-5,"A"
725,"Fond-Du-Lac Airport","Fond-Du-Lac","Canada","ZFD","CZFD",59.3344,-107.182,814,-6,"N"
726,"Pond Inlet","Pond Inlet","Canada","YIO","CYIO",72.683334,-77.966667,181,-5,"A"
727,"Eastmain River Airport","Eastmain River","Canada","ZEM","CZEM",52.2264,-78.5225,24,-5,"A"
728,"Ilford Airport","Ilford","Canada","ILF","CZBD",56.0614,-95.6139,642,-6,"A"
729,"Stephenville","Stephenville","Canada","YJT","CYJT",48.544167,-58.549999,80,-4,"A"
730,"Bathurst Airport","Bathurst","Canada","ZBF","CZBF",47.6297,-65.7389,193,-4,"A"
731,"Gjoa Haven","Gjoa Haven","Canada","YHK","CYHK",68.635556,-95.849722,152,-6,"A"
732,"Ulukhaktok Holman","Holman Island","Canada","YHI","CYHI",70.762778,-117.806111,117,-7,"A"
733,"Dryden Rgnl","Dryden","Canada","YHD","CYHD",49.831667,-92.744167,1354,-6,"A"
734,"Hamilton","Hamilton","Canada","YHM","CYHM",43.173611,-79.935,780,-5,"A"
735,"Atikokan Muni","Atikokan","Canada","YIB","CYIB",48.773888,-91.638611,1408,-6,"A"
736,"Halifax Intl","Halifax","Canada","YHZ","CYHZ",44.880833,-63.50861,477,-4,"A"
737,"Hay River","Hay River","Canada","YHY","CYHY",60.839722,-115.782778,543,-7,"A"
738,"Hornepayne","Hornepayne","Canada","YHN","CYHN",49.193056,-84.758889,1099,-5,"A"
739,"Rene Fontaine","Hearst","Canada","YHF","CYHF",49.713889,-83.686944,826,-5,"A"
740,"Kamloops","Kamloops","Canada","YKA","CYKA",50.702222,-120.444444,1133,-8,"A"
741,"Big Trout Lake Airport","Big Trout Lake","Canada","YTL","CYTL",53.8178,-89.8969,729,-5,"A"
742,"Arviat","Eskimo Point","Canada","YEK","CYEK",61.094166,-94.070833,32,-6,"A"
743,"Manitouwadge","Manitouwadge","Canada","YMG","CYMG",49.083889,-85.860556,1198,-5,"A"
744,"Kirkland Lake","Kirkland Lake","Canada","YKX","CYKX",48.210278,-79.981389,1157,-5,"A"
745,"Whale Cove Airport","Whale Cove","Canada","YXN","CYXN",62.24,-92.5981,40,-6,"A"
746,"Salluit Airport","Salluit","Canada","YZG","CYZG",62.1794,-75.6672,743,-5,"A"
747,"York Landing Airport","York Landing","Canada","ZAC","CZAC",56.0894,-96.0892,621,-6,"A"
748,"Webequie Airport","Webequie","Canada","YWP","CYWP",52.9597,-87.3689,685,-5,"A"
749,"Marathon","Marathon","Canada","YSP","CYSP",48.755278,-86.344444,1035,-5,"A"
750,"Keewaywin","Keewaywin","Canada","KEW","CPV8",52.991111,-92.836389,988,-5,"A"
751,"Deer Lake Airport","Deer Lake","Canada","YVZ","CYVZ",52.6558,-94.0614,1092,-6,"A"
752,"Gods River Airport","Gods River","Canada","ZGI","CZGI",54.8397,-94.0786,627,-6,"A"
753,"Sept Iles","Sept-iles","Canada","YZV","CYZV",50.223333,-66.265556,180,-5,"A"
754,"Teslin","Teslin","Canada","YZW","CYZW",60.172779,-132.742778,2313,-8,"A"
755,"Greenwood","Greenwood","Canada","YZX","CYZX",44.984444,-64.916944,92,-4,"A"
756,"Whitecourt","Whitecourt","Canada","YZU","CYZU",54.14389,-115.786667,2567,-7,"A"
757,"Fort Simpson","Fort Simpson","Canada","YFS","CYFS",61.760153,-121.236525,555,-7,"A"
758,"Churchill Falls Airport","Churchill Falls","Canada","ZUM","CZUM",53.5619,-64.1064,1442,-4,"A"
759,"Wollaston Lake Airport","Wollaston Lake","Canada","ZWL","CZWL",58.1069,-103.172,1360,-6,"N"
760,"Iqaluit","Iqaluit","Canada","YFB","CYFB",63.75639,-68.555832,110,-5,"A"
761,"Edson","Edson","Canada","YET","CYET",53.578888,-116.465,3041,-7,"A"
762,"Inuvik Mike Zubko","Inuvik","Canada","YEV","CYEV",68.304167,-133.482778,224,-7,"A"
763,"Fredericton","Fredericton","Canada","YFC","CYFC",45.868889,-66.537222,68,-4,"A"
764,"Estevan","Estevan","Canada","YEN","CYEN",49.210278,-102.965833,1905,-6,"N"
765,"Fort Resolution","Fort Resolution","Canada","YFR","CYFR",61.180832,-113.689722,526,-7,"A"
766,"Flin Flon","Flin Flon","Canada","YFO","CYFO",54.678055,-101.681667,997,-6,"A"
767,"Sachigo Lake Airport","Sachigo Lake","Canada","ZPB","CZPB",53.8911,-92.1964,876,-6,"A"
768,"Round Lake (Weagamow Lake) Airport","Round Lake","Canada","ZRJ","CZRJ",52.9436,-91.3128,974,-6,"A"
769,"Sandy Lake Airport","Sandy Lake","Canada","ZSJ","CZSJ",53.0642,-93.3444,951,-6,"A"
770,"Masset Airport","Masset","Canada","ZMT","CZMT",54.0275,-132.125,25,-8,"A"
771,"Swan River Airport","Swan River","Canada","ZJN","CZJN",52.1206,-101.236,1100,-6,"A"
772,"Kashechewan Airport","Kashechewan","Canada","ZKE","CZKE",52.2825,-81.6778,35,-5,"A"
773,"Muskrat Dam Airport","Muskrat Dam","Canada","MSA","CZMD",53.4414,-91.7628,911,-6,"A"
774,"Gaspe","Gaspe","Canada","YGP","CYGP",48.775278,-64.478611,108,-5,"A"
775,"La Grande Riviere","La Grande Riviere","Canada","YGL","CYGL",53.625278,-77.704167,639,-5,"A"
776,"Kingston","Kingston","Canada","YGK","CYGK",44.225277,-76.596944,305,-5,"A"
777,"Geraldton Greenstone Regional","Geraldton","Canada","YGQ","CYGQ",49.778332,-86.939445,1144,-5,"A"
778,"Shamattawa Airport","Shamattawa","Canada","ZTM","CZTM",55.8656,-92.0814,289,-6,"A"
779,"Hudson Bay","Hudson Bay","Canada","YHB","CYHB",52.816666,-102.31139,1175,-6,"N"
780,"Iles De La Madeleine","Iles De La Madeleine","Canada","YGR","CYGR",47.424721,-61.778056,35,-4,"A"
781,"Natashquan","Natashquan","Canada","YNA","CYNA",50.19,-61.789167,39,-4,"A"
782,"St Hubert","Montreal","Canada","YHU","CYHU",45.5175,-73.416944,90,-5,"A"
783,"Montreal Intl Mirabel","Montreal","Canada","YMX","CYMX",45.681944,-74.005278,270,-5,"A"
784,"Gatineau","Gatineau","Canada","YND","CYND",45.521694,-75.563589,211,-5,"A"
785,"Cold Lake","Cold Lake","Canada","YOD","CYOD",54.404999,-110.279444,1775,-7,"A"
786,"Old Crow","Old Crow","Canada","YOC","CYOC",67.570556,-139.839167,824,-8,"A"
787,"Matagami","Matagami","Canada","YNM","CYNM",49.761667,-77.802778,918,-5,"A"
788,"Mayo","Mayo","Canada","YMA","CYMA",63.616389,-135.868333,1653,-8,"A"
789,"Kelowna","Kelowna","Canada","YLW","CYLW",49.956112,-119.377778,1409,-8,"A"
790,"Alert","Alert","Canada","YLT","CYLT",82.517778,-62.280556,100,-5,"A"
791,"Moose Jaw Air Vice Marshal C M Mcewen","Moose Jaw","Canada","YMJ","CYMJ",50.330278,-105.559167,1892,-6,"N"
792,"Maniwaki","Maniwaki","Canada","YMW","CYMW",46.272778,-75.990556,656,-5,"A"
793,"Moosonee","Moosonee","Canada","YMO","CYMO",51.291111,-80.607778,30,-5,"A"
794,"Fort Mcmurray","Fort Mcmurray","Canada","YMM","CYMM",56.653333,-111.221944,1211,-7,"A"
795,"Fort Chipewyan","Fort Chipewyan","Canada","YPY","CYPY",58.767223,-111.117222,761,-7,"A"
796,"Prince Rupert","Prince Pupert","Canada","YPR","CYPR",54.28611,-130.444722,116,-8,"A"
797,"Peterborough","Peterborough","Canada","YPQ","CYPQ",44.23,-78.363333,628,-5,"A"
798,"Muskoka","Muskoka","Canada","YQA","CYQA",44.974722,-79.303333,925,-5,"A"
799,"Windsor","Windsor","Canada","YQG","CYQG",42.275556,-82.955556,622,-5,"A"
800,"Red Deer Regional","Red Deer Industrial","Canada","YQF","CYQF",52.182222,-113.894444,2968,-7,"A"
801,"Quebec Jean Lesage Intl","Quebec","Canada","YQB","CYQB",46.791111,-71.393333,244,-5,"A"
802,"Prince Albert Glass Field","Prince Albert","Canada","YPA","CYPA",53.214167,-105.672778,1405,-6,"N"
803,"Ottawa Macdonald Cartier Intl","Ottawa","Canada","YOW","CYOW",45.3225,-75.669167,374,-5,"A"
804,"High Level","High Level","Canada","YOJ","CYOJ",58.621389,-117.164722,1110,-7,"A"
805,"Peace River","Peace River","Canada","YPE","CYPE",56.226944,-117.447222,1873,-7,"A"
806,"Port Menier","Port Menier","Canada","YPN","CYPN",49.836389,-64.288611,167,-5,"A"
807,"Pickle Lake","Pickle Lake","Canada","YPL","CYPL",51.446388,-90.214167,1267,-6,"A"
808,"Southport","Portage-la-prairie","Canada","YPG","CYPG",49.903056,-98.273889,885,-6,"A"
809,"Lloydminster","Lloydminster","Canada","YLL","CYLL",53.309166,-110.0725,2193,-6,"A"
810,"Wawa","Wawa","Canada","YXZ","CYXZ",47.966944,-84.786389,944,-5,"A"
811,"Bella Bella Airport","Bella Bella","Canada","ZEL","CYJQ",52.139722,-128.063611,162,-8,"A"
812,"Nakina Airport","Nakina","Canada","YQN","CYQN",50.182777,-86.696388,1057,-5,"A"
813,"Manitoulin East","Manitowaning","Canada","YEM","CYEM",45.8425,-81.8575,869,-5,"A"
814,"Nanaimo Harbour Water Airport","Nanaimo","Canada","ZNA","CAC8",49.183333,-123.95,0,-8,"A"
815,"Fort St. James - Perison Airport","Fort St. James","Canada","YJM","CYJM",54.397222,-124.262778,2364,-8,"A"
816,"Boundary Bay Airport","Boundary Bay","Canada","YDT","CZBB",49.073889,-123.0075,6,-8,"A"
817,"St. Theresa Point Airport","St. Theresa Point","Canada","YST","CYST",53.8456,-94.8519,773,-6,"A"
818,"Edmonton Intl","Edmonton","Canada","YEG","CYEG",53.309723,-113.579722,2373,-7,"A"
819,"Waterloo","Waterloo","Canada","YKF","CYKF",43.460833,-80.378611,1054,-5,"A"
820,"Sanikiluaq Airport","Sanikiluaq","Canada","YSK","CYSK",56.5378,-79.2467,104,-5,"A"
821,"Rae Lakes Airport","Gam?t?","Canada","YRA","CYRA",64.1161,-117.31,723,-7,"A"
822,"Red Lake Airport","Red Lake","Canada","YRL","CYRL",51.0669,-93.7931,1265,-6,"A"
823,"Stony Rapids Airport","Stony Rapids","Canada","YSF","CYSF",59.2503,-105.841,805,-6,"N"
824,"Schefferville","Schefferville","Canada","YKL","CYKL",54.805278,-66.805278,1709,-4,"A"
825,"Tadoule Lake Airport","Tadoule Lake","Canada","XTL","CYBQ",58.706111,-98.512222,923,-7,"A"
826,"Lac Brochet Airport","Lac Brochet","Canada","XLB","CZWH",58.614167,-101.468889,1212,-6,"A"
827,"Kindersley","Kindersley","Canada","YKY","CYKY",51.5175,-109.180833,2277,-6,"N"
828,"Meadow Lake","Meadow Lake","Canada","YLJ","CYLJ",54.125278,-108.522778,1576,-6,"N"
829,"Chapleau","Chapleau","Canada","YLD","CYLD",47.82,-83.346667,1470,-5,"A"
830,"Buttonville Muni","Toronto","Canada","YKZ","CYKZ",43.862221,-79.37,650,-5,"A"
831,"Red Sucker Lake Airport","Red Sucker Lake","Canada","YRS","CYRS",54.167222,-93.557222,729,-7,"A"
832,"Rainbow Lake Airport","Rainbow Lake","Canada","YOP","CYOP",58.491389,-119.407778,1756,-7,"A"
833,"Bonnyville Airport","Bonnyville","Canada","YBY","CYBF",54.304722,-110.741111,1839,-7,"A"
834,"Cross Lake - Charlie Sinclair Memorial Airport","Cross Lake","Canada","YCR","CYCR",54.610833,-97.760278,707,-7,"A"
835,"South Indian Lake Airport","South Indian Lake","Canada","XSI","CZSN",56.792778,-98.907222,951,-7,"A"
836,"Brochet Airport","Brochet","Canada","YBT","CYBT",57.889444,-101.679167,1131,-7,"A"
837,"Little Grand Rapids Airport","Little Grand Rapids","Canada","ZGR","CZGR",52.045,-95.466111,1008,-7,"A"
838,"Chilliwack","Chilliwack","Canada","YCW","CYCW",49.152779,-121.93889,32,-8,"A"
839,"Winnipeg St Andrews","Winnipeg","Canada","YAV","CYAV",50.056389,-97.0325,760,-6,"A"
840,"Shearwater","Halifax","Canada","YAW","CYAW",44.639721,-63.499444,167,-4,"A"
841,"Fort Mcpherson","Fort Mcpherson","Canada","ZFM","CZFM",67.4075,-134.860556,116,-7,"A"
842,"Sault Ste Marie","Sault Sainte Marie","Canada","YAM","CYAM",46.485001,-84.509445,630,-5,"A"
843,"St Anthony","St. Anthony","Canada","YAY","CYAY",51.391944,-56.083056,108,-4,"A"
844,"Baie Comeau","Baie Comeau","Canada","YBC","CYBC",49.1325,-68.204444,71,-5,"A"
845,"Bagotville","Bagotville","Canada","YBG","CYBG",48.330555,-70.996391,522,-5,"A"
846,"Tofino","Tofino","Canada","YAZ","CYAZ",49.082222,-125.7725,80,-8,"A"
847,"Kugaaruk","Pelly Bay","Canada","YBB","CYBB",68.534444,-89.808056,56,-6,"A"
848,"Bonaventure Airport","Bonaventure","Canada","YVB","CYVB",48.0711,-65.4603,123,-4,"A"
849,"Victoria Inner Harbour Airport","Victoria","Canada","YWH","CYWH",48.422778,-123.3875,0,-8,"A"
850,"Vancouver Coal Harbour","Vancouver","Canada","CXH","CAQ3",49.289722,-123.115833,0,-8,"A"
851,"Pangnirtung","Pangnirtung","Canada","YXP","CYXP",66.145,-65.713611,75,-5,"A"
852,"Ekati","Ekati","Canada","YOA","CYOA",64.698889,-110.614722,1540,-7,"A"
853,"Timiskaming Rgnl","Earlton","Canada","YXR","CYXR",47.695,-79.848889,798,-5,"A"
854,"St Augustin Airport","St-Augustin","Canada","YIF","CYIF",51.2117,-58.6583,20,-4,"A"
855,"South Cariboo Regional Airport","108 Mile Ranch","Canada","ZML","CZML",51.4412,-121.1958,3129,-8,"A"
856,"Prince George","Prince George","Canada","YXS","CYXS",53.889444,-122.678889,2267,-8,"A"
857,"Smithers","Smithers","Canada","YYD","CYYD",54.824722,-127.182778,1712,-8,"A"
858,"What? Airport","What?","Canada","YLE","CEM3",63.1317,-117.246,882,-7,"A"
859,"Summer Beaver Airport","Summer Beaver","Canada","SUR","CJV7",52.7086,-88.5419,832,-5,"A"
860,"Rigolet Airport","Rigolet","Canada","YRG","CCZ2",54.1797,-58.4575,180,-4,"A"
861,"Colville Lake Airport","Colville Lake","Canada","YCK","CEB3",67.0333,-126.083,850,-7,"A"
862,"Wapekeka Airport","Angling Lake","Canada","YAX","CKB6",53.8492,-89.5794,712,-5,"A"
863,"Bearskin Lake Airport","Bearskin Lake","Canada","XBE","CNE3",53.9656,-91.0272,800,-6,"A"
864,"Kingfisher Lake Airport","Kingfisher Lake","Canada","KIF","CNM5",53.0125,-89.8553,866,-5,"A"
865,"Wunnumin Lake Airport","Wunnumin Lake","Canada","WNN","CKL3",52.8939,-89.2892,819,-5,"A"
866,"North Spirit Lake Airport","North Spirit Lake","Canada","YNO","CKQ3",52.49,-92.9711,1082,-6,"A"
867,"Mackenzie Airport","Mackenzie British Columbia","Canada","YZY","CYZY",55.29944,-123.08333,2264,-8,"A"
868,"Baker Lake","Baker Lake","Canada","YBK","CYBK",64.298889,-96.077778,59,-6,"A"
869,"Whistler/Green Lake Water Aerodrome","Whistler","Canada","YWS","CAE5",50.1436,-122.949,2100,-8,"A"
870,"Fort Nelson","Fort Nelson","Canada","YYE","CYYE",58.836389,-122.596944,1253,-8,"A"
871,"Penticton","Penticton","Canada","YYF","CYYF",49.463056,-119.602222,1129,-8,"A"
872,"Anahim Lake Airport","Anahim Lake","Canada","YAA","CAJ4",52.4525,-125.303,3635,-8,"A"
873,"Port Hope Simpson Airport","Port Hope Simpson","Canada","YHA","CCP4",52.5281,-56.2861,347,-4,"A"
874,"Charlottetown","Charlottetown","Canada","YYG","CYYG",46.290001,-63.121111,160,-4,"A"
875,"Williams Harbour Airport","Williams Harbour","Canada","YWM","CCA6",52.5669,-55.7847,70,-4,"A"
876,"St. Lewis (Fox Harbour) Airport","St. Lewis","Canada","YFX","CCK4",52.3728,-55.6739,74,-4,"A"
877,"Wiarton","Wiarton","Canada","YVV","CYVV",44.745834,-81.107222,729,-5,"A"
878,"Repulse Bay","Repulse Bay","Canada","YUT","CYUT",66.521389,-86.224722,80,-6,"A"
879,"Vancouver Intl","Vancouver","Canada","YVR","CYVR",49.193889,-123.184444,14,-8,"A"
880,"Buffalo Narrows","Buffalo Narrows","Canada","YVT","CYVT",55.841944,-108.4175,1444,-6,"N"
881,"Pierre Elliott Trudeau Intl","Montreal","Canada","YUL","CYUL",45.470556,-73.740833,118,-5,"A"
882,"Trois Rivieres Airport","Trois Rivieres","Canada","YRQ","CYRQ",46.351667,-72.680556,199,-5,"A"
883,"Wabush","Wabush","Canada","YWK","CYWK",52.921944,-66.864444,1808,-4,"A"
884,"Petawawa","Petawawa","Canada","YWA","CYWA",45.952221,-77.319168,427,-5,"A"
885,"Winnipeg Intl","Winnipeg","Canada","YWG","CYWG",49.910036,-97.239886,783,-6,"A"
886,"Gimli Industrial Park Airport","Gimli","Canada","YGM","CYGM",50.628056,-97.043333,753,-6,"A"
887,"Vermilion","Vermillion","Canada","YVG","CYVG",53.355833,-110.82389,2025,-7,"A"
888,"La Ronge","La Ronge","Canada","YVC","CYVC",55.15139,-105.261944,1242,-6,"N"
889,"Val D Or","Val D'or","Canada","YVO","CYVO",48.053333,-77.782778,1107,-5,"A"
890,"Qikiqtarjuaq","Broughton Island","Canada","YVM","CYVM",67.545833,-64.031389,21,-5,"A"
891,"Rouyn Noranda","Rouyn","Canada","YUY","CYUY",48.206111,-78.835556,988,-5,"A"
892,"Kuujjuaq","Quujjuaq","Canada","YVP","CYVP",58.096111,-68.426944,129,-5,"A"
893,"Norman Wells","Norman Wells","Canada","YVQ","CYVQ",65.281617,-126.798219,238,-7,"A"
894,"Hall Beach","Hall Beach","Canada","YUX","CYUX",68.776111,-81.243611,27,-5,"A"
895,"Bob Quinn Lake","Bob Quinn Lake","Canada","YBO","CBW4",56.58,-130.5,50,-8,"U"
896,"Oshawa Airport","Oshawa","Canada","YOO","CYOO",43.9228,-78.895,459,-5,"A"
897,"Calgary Intl","Calgary","Canada","YYC","CYYC",51.113888,-114.020278,3557,-7,"A"
898,"Fort St John","Fort Saint John","Canada","YXJ","CYXJ",56.238056,-120.740278,2280,-8,"A"
899,"Sioux Lookout","Sioux Lookout","Canada","YXL","CYXL",50.113889,-91.905278,1258,-6,"A"
900,"Thompson","Thompson","Canada","YTH","CYTH",55.801111,-97.864166,729,-6,"A"
901,"Summerside","Summerside","Canada","YSU","CYSU",46.440556,-63.833611,56,-4,"A"
902,"Nanisivik","Nanisivik","Canada","YSR","CYSR",72.982222,-84.613611,2106,-5,"A"
903,"Cape Dorset","Cape Dorset","Canada","YTE","CYTE",64.23,-76.526667,164,-5,"A"
904,"Sachs Harbour","Sachs Harbour","Canada","YSY","CYSY",71.993889,-125.2425,282,-7,"A"
905,"Trenton","Trenton","Canada","YTR","CYTR",44.118889,-77.528056,283,-5,"A"
906,"Canadian Rockies Intl","Cranbrook","Canada","YXC","CYXC",49.612222,-115.781944,3084,-7,"A"
907,"Edmonton City Centre","Edmonton","Canada","YXD","CYXD",53.5725,-113.520556,2200,-7,"A"
908,"Williams Lake","Williams Lake","Canada","YWL","CYWL",52.183056,-122.054167,3085,-8,"A"
909,"Wrigley","Wrigley","Canada","YWY","CYWY",63.209444,-123.436667,489,-7,"A"
910,"Saskatoon J G Diefenbaker Intl","Saskatoon","Canada","YXE","CYXE",52.170834,-106.699722,1653,-6,"N"
911,"City Centre","Toronto","Canada","YTZ","CYTZ",43.627499,-79.396167,251,-5,"A"
912,"Timmins","Timmins","Canada","YTS","CYTS",48.569721,-81.376667,967,-5,"A"
913,"Medicine Hat","Medicine Hat","Canada","YXH","CYXH",50.01889,-110.720833,2352,-7,"A"
914,"Tuktoyaktuk","Tuktoyaktuk","Canada","YUB","CYUB",69.433334,-133.026389,15,-7,"A"
915,"Calgary Springbank Airport","Calgary","Canada","YBW","CYBW",51.1031,-114.374,3939,-7,"A"
916,"Kuujjuarapik Airport","Kuujjuarapik","Canada","YGW","CYGW",55.2819,-77.7653,34,-5,"A"
917,"Gillam Airport","Gillam","Canada","YGX","CYGX",56.3575,-94.7106,476,-6,"A"
918,"Igloolik Airport","Igloolik","Canada","YGT","CYGT",69.3647,-81.8161,174,-5,"A"
919,"Texada Gillies Bay Airport","Texada","Canada","YGB","CYGB",49.6942,-124.518,326,-8,"A"
920,"Gods Lake Narrows Airport","Gods Lake Narrows","Canada","YGO","CYGO",54.5589,-94.4914,617,-6,"A"
921,"Nemiscau Airport","Nemiscau","Canada","YNS","CYHH",51.6911,-76.1356,802,-5,"A"
922,"Hopedale Airport","Hopedale","Canada","YHO","CYHO",55.4483,-60.2286,39,-4,"A"
923,"Vancouver Harbour Water Airport","Vancouver","Canada","YHC","CYHC",49.2944,-123.111,0,-8,"A"
924,"Grise Fiord Airport","Grise Fiord","Canada","YGZ","CYGZ",76.4261,-82.9092,146,-5,"A"
925,"Quaqtaq Airport","Quaqtaq","Canada","YQC","CYHA",61.0464,-69.6178,103,-5,"A"
926,"Black Tickle Airport","Black Tickle","Canada","YBI","CCE4",53.47,-55.7875,57,-4,"A"
927,"Trail Airport","Trail","Canada","YZZ","CAD4",49.055556,-117.609167,1427,-8,"A"
928,"Kegaska Airport","Kegaska","Canada","ZKG","CTK6",50.195833,-61.265833,32,-4,"A"
929,"Suffield Heliport","Suffield","Canada","YSD","CYSD",50.2666701,-111.182999,2525,-7,"A"
930,"Cornwall Regional Airport","Cornwall","Canada","YCC","CYCC",45.092778,-74.567778,175,-5,"A"
931,"Fort Hope Airport","Fort Hope","Canada","YFH","CYFH",51.5619,-87.9078,899,-5,"A"
932,"Makkovik Airport","Makkovik","Canada","YMN","CYFT",55.0769,-59.1864,234,-4,"A"
933,"Tulita","Tulita","Canada","ZFN","CZFN",64.0833333,-125.5833333,320,-7,"A"
934,"Abbotsford","Abbotsford","Canada","YXX","CYXX",49.025278,-122.360556,195,-8,"A"
935,"Fort Good Hope","Fort Good Hope","Canada","YGH","CYGH",66.26666667,-128.65,215,-7,"A"
936,"Castlegar","Castlegar","Canada","YCG","CYCG",49.296389,-117.6325,1624,-8,"A"
937,"Miramichi","Chatham","Canada","YCH","CYCH",47.007778,-65.449167,108,-4,"A"
938,"North Bay","North Bay","Canada","YYB","CYYB",46.363611,-79.422778,1215,-5,"A"
939,"Cambridge Bay","Cambridge Bay","Canada","YCB","CYCB",69.108055,-105.138333,90,-7,"A"
940,"Eureka","Eureka","Canada","YEU","CYEU",79.994722,-85.814167,256,-6,"A"
941,"Nanaimo","Nanaimo","Canada","YCD","CYCD",49.052333,-123.870167,93,-8,"A"
942,"Coronation","Coronation","Canada","YCT","CYCT",52.075001,-111.445278,2595,-7,"A"
943,"Kugluktuk","Coppermine","Canada","YCO","CYCO",67.816667,-115.143889,74,-7,"A"
944,"Charlo","Charlo","Canada","YCL","CYCL",47.990833,-66.330278,132,-4,"A"
945,"Aupaluk Airport","Aupaluk","Canada","YPJ","CYLA",59.2967,-69.5997,119,-5,"A"
946,"Whitehorse Intl","Whitehorse","Canada","YXY","CYXY",60.709553,-135.067269,2317,-8,"A"
947,"Akulivik Airport","Akulivik","Canada","AKV","CYKO",60.8186,-78.1486,75,-5,"A"
948,"Island Lake Airport","Island Lake","Canada","YIV","CYIV",53.8572,-94.6536,770,-6,"A"
949,"Chevery Airport","Chevery","Canada","YHR","CYHR",50.4689,-59.6367,39,-4,"A"
950,"Ivujivik Airport","Ivujivik","Canada","YIK","CYIK",62.4173,-77.9253,126,-5,"A"
951,"Campbell River","Campbell River","Canada","YBL","CYBL",49.950832,-125.270833,346,-8,"A"
952,"Brandon Muni","Brandon","Canada","YBR","CYBR",49.91,-99.951944,1343,-6,"A"
953,"Aklavik","Aklavik","Canada","LAK","CYKD",68.223333,-135.005833,23,-7,"A"
954,"Waskaganish Airport","Waskaganish","Canada","YKQ","CYKQ",51.4733,-78.7583,80,-5,"A"
955,"Deline","Deline","Canada","YWJ","CYWJ",65.1833333,-125.41666667,550,-7,"A"
956,"Kangirsuk Airport","Kangirsuk","Canada","YKG","CYAS",60.0272,-69.9992,403,-5,"A"
957,"Fort Smith","Fort Smith","Canada","YSM","CYSM",60.020278,-111.961944,671,-7,"A"
958,"Kasabonika Airport","Kasabonika","Canada","XKS","CYAQ",53.5247,-88.6428,672,-5,"A"
959,"Yarmouth Airport","Yarmouth","Canada","YQI","CYQI",43.8269,-66.0881,141,-5,"A"
960,"Fort Frances Municipal Airport","Fort Frances","Canada","YAG","CYAG",48.6542,-93.4397,1125,-6,"A"
961,"Uranium City Airport","Uranium City","Canada","YBE","CYBE",59.5614,-108.481,1044,-6,"N"
962,"Lourdes De Blanc Sablon Airport","Lourdes-De-Blanc-Sablon","Canada","YBX","CYBX",51.4436,-57.1853,121,-4,"A"
963,"Attawapiskat Airport","Attawapiskat","Canada","YAT","CYAT",52.9275,-82.4319,31,-5,"A"
964,"Saint John","St. John","Canada","YSJ","CYSJ",45.316111,-65.890278,357,-4,"A"
965,"Sherbrooke","Sherbrooke","Canada","YSC","CYSC",45.438611,-71.691389,792,-5,"A"
966,"Poplar Hill Airport","Poplar Hill","Canada","YHP","CPV7",52.1133,-94.2556,1095,-6,"A"
967,"Chisasibi Airport","Chisasibi","Canada","YKU","CSU2",53.8056,-78.9169,43,-5,"A"
968,"Ogoki Post Airport","Ogoki Post","Canada","YOG","CNT3",51.6586,-85.9017,594,-5,"A"
969,"Golden Airport","Golden","Canada","YGE","CYGE",51.2992,-116.982,2575,-7,"A"
970,"Revelstoke Airport","Revelstoke","Canada","YRV","CYRV",50.9667,-118.183,1459,-8,"A"
971,"Cat Lake Airport","Cat Lake","Canada","YAC","CYAC",51.7272,-91.8244,1344,-6,"A"
972,"Terrace","Terrace","Canada","YXT","CYXT",54.468508,-128.576219,713,-8,"A"
973,"La Tabati?re Airport","La Tabati?re","Canada","ZLT","CTU5",50.8308,-58.9756,102,-4,"A"
974,"Kingston Train Station","Kingston","Canada","XEG","KGST",44.256944,-76.536943,282,-5,"A"
975,"T?te-?-la-Baleine Airport","T?te-?-la-Baleine","Canada","ZTB","CTB6",50.6744,-59.3836,107,-4,"A"
976,"Cartwright Airport","Cartwright","Canada","YRF","CYCA",53.6828,-57.0419,40,-4,"A"
977,"Victoria Intl","Victoria","Canada","YYJ","CYYJ",48.646944,-123.425833,63,-8,"A"
978,"Taloyoak","Spence Bay","Canada","YYH","CYYH",69.546667,-93.576667,92,-6,"A"
979,"Pembroke Airport","Pembroke","Canada","YTA","CYTA",45.864399,-77.251701,529,-5,"A"
980,"Paulatuk","Paulatuk","Canada","YPC","CYPC",62.35,-124.3333,50,-7,"A"
981,"London","London","Canada","YXU","CYXU",43.033056,-81.151111,912,-5,"A"
982,"Fort Severn Airport","Fort Severn","Canada","YER","CYER",56.0189,-87.6761,48,-5,"A"
983,"Chesterfield Inlet Airport","Chesterfield Inlet","Canada","YCS","CYCS",63.3469,-90.7311,32,-6,"A"
984,"Nain Airport","Nain","Canada","YDP","CYDP",56.5492,-61.6803,22,-4,"A"
985,"Fort Albany Airport","Fort Albany","Canada","YFA","CYFA",52.2014,-81.6969,48,-5,"A"
986,"Sao Filipe Airport","Sao Filipe","Cape Verde","SFL","GVSF",14.885,-24.48,617,-1,"U"
987,"Sao Pedro","Sao Vicente Island","Cape Verde","VXE","GVSV",16.833689,-25.054661,66,-1,"U"
988,"Preguica","Sao Nocolau Island","Cape Verde","SNE","GVSN",16.588356,-24.284656,669,-1,"U"
989,"Maio","Maio","Cape Verde","MMO","GVMA",15.155928,-23.213703,36,-1,"U"
990,"Rabil","Boa Vista","Cape Verde","BVC","GVBA",16.136531,-22.888897,69,-1,"U"
991,"Praia International Airport","Praia","Cape Verde","RAI","GVNP",14.9245,-23.4935,230,-1,"U"
992,"Amilcar Cabral Intl","Amilcar Cabral","Cape Verde","SID","GVAC",16.741389,-22.949444,177,-1,"U"
993,"Owen Roberts Intl","Georgetown","Cayman Islands","GCM","MWCR",19.292778,-81.35775,8,-5,"U"
994,"Edward Bodden Airfield","Little Cayman","Cayman Islands","LYB","MWCL",19.6591666667,-80.09083333,1,-5,"U"
995,"Gerrard Smith Intl","Cayman Barac","Cayman Islands","CYB","MWCB",19.686981,-79.882789,8,-5,"U"
996,"Bangui M Poko","Bangui","Central African Republic","BGF","FEFF",4.398475,18.518786,1208,1,"N"
997,"Berberati","Berberati","Central African Republic","BBT","FEFT",4.221583,15.786369,1929,1,"N"
998,"Sarh Airport","Sarh","Chad","SRH","FTTA",9.14444,18.3744,1198,1,"N"
999,"Ndjamena Hassan Djamous","N'djamena","Chad","NDJ","FTTJ",12.133689,15.034019,968,1,"N"
1000,"Faya Largeau","Faya-largeau","Chad","FYT","FTTY",17.917053,19.111078,771,1,"N"
1001,"Abeche","Abeche","Chad","AEH","FTTC",13.847,20.844333,1788,1,"N"
1002,"Moundou","Moundou","Chad","MQQ","FTTD",8.624406,16.071419,1407,1,"N"
1003,"Am Timan Airport","Am Timan","Chad","AMC","FTTN",11.034,20.274,1421,1,"U"
1004,"Copiapo","Copiapo","Chile","CPO","SCHA",-27,-70,1000,-4,"S"
1005,"Carlos Ibanez Del Campo Intl","Punta Arenas","Chile","PUQ","SCCI",-53.002642,-70.854586,139,-4,"S"
1006,"Diego Aracena Intl","Iquique","Chile","IQQ","SCDA",-20.535222,-70.181275,155,-4,"S"
1007,"Chacalluta","Arica","Chile","ARI","SCAR",-18.348531,-70.338742,167,-4,"S"
1008,"Puerto Natales","Puerto Natales","Chile","PNT","SCNT",-51.733333,-72.516667,9,-3,"S"
1009,"El Loa","Calama","Chile","CJC","SCCF",-22.498175,-68.903575,7543,-4,"S"
1010,"Chile Chico","Chile Chico","Chile","CCH","SCCC",-46.583341,-71.687405,1070,-3,"S"
1011,"Teniente Vidal","Coyhaique","Chile","GXQ","SCCY",-45.594211,-72.106133,1020,-4,"S"
1012,"Puc?n Airport","Pucon","Chile","ZPC","SCPC",-39.2928,-71.9159,853,-4,"S"
1013,"Balmaceda","Balmaceda","Chile","BBA","SCBA",-45.916058,-71.689475,1722,-3,"S"
1014,"El Tepual Intl","Puerto Montt","Chile","PMC","SCTE",-41.438886,-73.093953,294,-4,"S"
1015,"Maquehue","Temuco","Chile","ZCO","SCTC",-38.766819,-72.637097,304,-4,"S"
1016,"La Florida","La Serena","Chile","LSC","SCSE",-29.916233,-71.199522,481,-4,"S"
1017,"Ricardo Garc?a Posada Airport","El Salvador","Chile","ESR","SCES",-26.3111,-69.7652,5240,-4,"S"
1018,"Pichoy","Valdivia","Chile","ZAL","SCVD",-39.649956,-73.086111,59,-4,"S"
1019,"Chaiten","Chaiten","Chile","WCH","SCTN",-42.932808,-72.699114,13,-4,"S"
1020,"Canal Bajo Carlos Hott Siebert","Osorno","Chile","ZOS","SCJO",-40.611208,-73.061042,187,-4,"S"
1021,"Maria Dolores","Los Angeles","Chile","LSQ","SCGE",-37.401731,-72.425444,374,-4,"S"
1022,"Carriel Sur Intl","Concepcion","Chile","CCP","SCIE",-36.77265,-73.063106,26,-4,"S"
1023,"Arturo Merino Benitez Intl","Santiago","Chile","SCL","SCEL",-33.392975,-70.785803,1555,-4,"S"
1024,"Cerro Moreno Intl","Antofagasta","Chile","ANF","SCFA",-23.444478,-70.4451,455,-4,"S"
1025,"Mataveri Intl","Easter Island","Chile","IPC","SCIP",-27.164792,-109.421831,227,-6,"S"
1026,"Xi'An Xiguan","Xi'An","China","SIA","ZLSN",34.3767,109.12,0,8,"U"
1027,"Xiaoshan","Hangzhou","China","HGH","ZSHC",30.229503,120.434453,23,8,"U"
1028,"Lishe","Ninbo","China","NGB","ZSNB",29.826683,121.461906,13,8,"U"
1029,"Changbei Intl","Nanchang","China","KHN","ZSCN",28.865,115.9,143,8,"U"
1030,"Dongshan","Hailar","China","HLD","ZBLA",49.204997,119.825,2169,8,"U"
1031,"Lukou","Nanjing","China","NKG","ZSNJ",31.742042,118.862025,49,8,"U"
1032,"Altay Airport","Altay","China","AAT","ZWAT",47.866667,88.116667,2491,8,"U"
1033,"Jinggangshan","Jian","China","KNC","ZSJA",26.8575,114.737222,0,8,"U"
1034,"Gaoqi","Xiamen","China","XMN","ZSAM",24.544036,118.127739,59,8,"U"
1035,"Jiayuguan Airport","Jiayuguan","China","JGN","ZLJQ",39.8569,98.3414,0,8,"N"
1036,"Tongren","Tongren","China","TEN","ZUTR",27.884,109.31,0,8,"U"
1037,"Capital Intl","Beijing","China","PEK","ZBAA",40.080111,116.584556,116,8,"U"
1038,"Changle","Fuzhou","China","FOC","ZSFZ",25.935064,119.663272,46,8,"U"
1039,"Wuhai","Wuhai","China","WUA","ZBUH",39.794444,106.799444,0,8,"U"
1040,"Shuangliu","Chengdu","China","CTU","ZUUU",30.578528,103.947086,1625,8,"U"
1041,"Longdongbao","Guiyang","China","KWE","ZUGY",26.538522,106.800703,3736,8,"U"
1042,"Kashi","Kashi","China","KHG","ZWSH",39.542922,76.019956,4529,8,"U"
1043,"Qingshan","Xichang","China","XIC","ZUXC",27.989083,102.184361,5112,8,"U"
1044,"Hongqiao Intl","Shanghai","China","SHA","ZSSS",31.197875,121.336319,10,8,"U"
1045,"Tacheng Airport","Tacheng","China","TCG","ZWTC",46.6725,83.3408,0,8,"U"
1046,"Jiangbei","Chongqing","China","CKG","ZUCK",29.719217,106.641678,1365,8,"U"
1047,"Laishan","Yantai","China","YNT","ZSYT",37.401667,121.371667,59,8,"U"
1048,"Liuting","Qingdao","China","TAO","ZSQD",36.266108,120.374436,33,8,"U"
1049,"Pudong","Shanghai","China","PVG","ZSPD",31.143378,121.805214,13,8,"U"
1050,"Dandong","Dandong","China","DDG","ZYDD",40.0255,124.2866,0,8,"N"
1051,"Hami Airport","Hami","China","HMI","ZWHM",42.8414,93.6692,0,8,"U"
1052,"Changzhoudao Airport","Wuzhou","China","WUZ","ZGWZ",23.4567,111.248,89,8,"U"
1053,"Diwopu","Urumqi","China","URC","ZWWW",43.907106,87.474244,2125,8,"U"
1054,"Hotan","Hotan","China","HTN","ZWTN",37.038522,79.864933,4672,8,"U"
1055,"Zhoushuizi","Dalian","China","DLC","ZYTL",38.965667,121.5386,107,8,"U"
1056,"Taiping","Harbin","China","HRB","ZYHB",45.623403,126.250328,457,8,"U"
1057,"Ordos Ejin Horo","Dongsheng","China","DSN","ZBDS",39.85,110.033,0,8,"N"
1058,"Lhasa-Gonggar","Lhasa","China","LXA","ZULS",29.297778,90.911944,13136,8,"U"
1059,"Jinan","Jinan","China","TNA","ZSJN",36.857214,117.215992,76,8,"U"
1060,"Yinchuan","Yinchuan","China","INC","ZLIC",38.481944,106.009167,3600,8,"U"
1061,"Chaoyang Airport","Chaoyang","China","CHG","ZYCY",41.5381,120.435,0,8,"U"
1062,"Yibin","Yibin","China","YBP","ZUYB",28.800278,104.544444,1000,8,"U"
1063,"Baiyun Intl","Guangzhou","China","CAN","ZGGG",23.392436,113.298786,50,8,"U"
1064,"Wusu","Taiyuan","China","TYN","ZBYN",37.746897,112.628428,2575,8,"U"
1065,"Changzhou","Changzhou","China","CZX","ZSCG",31.941667,119.711667,39,8,"U"
1066,"Lanzhou Airport","Lanzhou","China","LHW","ZLAN",36.117,103.617,0,8,"N"
1067,"Luoyang Airport","Luoyang","China","LYA","ZHLY",34.41,112.28,210,8,"U"
1068,"Xuzhou Guanyin Airport","Xuzhou","China","XUZ","ZSXZ",34.16,117.11,140,8,"U"
1069,"Shigatse Peace Airport","Shigatse","China","RKZ","ZURK",29.351667,89.306944,12408,8,"N"
1070,"Lijiang Airport","Lijiang","China","LJG","ZPLJ",26.883333,100.23333,7923,8,"U"
1071,"Phoenix International","Sanya","China","SYX","ZJSY",18.302897,109.412272,92,8,"U"
1072,"Dongying Airport","Dongying","China","DOY","ZSDY",37.2716,118.2819,86,8,"U"
1073,"Shenyang Taoxian International Airport","Shenyang","China","SHE","ZYTX",41.3824,123.2901,198,8,"U"
1074,"Jixi Airport","Jixi","China","JXA","ZYJX",45.30611,130.99667,0,8,"N"
1075,"Dali","Dali","China","DLU","ZPDL",25.649444,100.319444,6978,8,"U"
1076,"Xinzheng","Zhengzhou","China","CGO","ZHCC",34.519672,113.840889,495,8,"U"
1077,"Binhai","Tianjin","China","TSN","ZBTJ",39.124353,117.346183,10,8,"U"
1078,"Panzhihua","Panzhihua","China","PZI","ZUZH",26.54,101.799,9186,8,"N"
1079,"Xianyang","Xi'an","China","XIY","ZLXY",34.447119,108.751592,1572,8,"U"
1080,"Wujiaba","Kunming","China","KMG","ZPPP",24.992364,102.743536,6217,8,"U"
1081,"Tianhe","Wuhan","China","WUH","ZHHH",30.783758,114.2081,113,8,"U"
1082,"Zhongchuan","Lanzhou","China","ZGC","ZLLL",36.515242,103.620775,6388,8,"U"
1083,"Zhangxiao","Yuncheng","China","YCU","ZBYC",35.018,110.993,0,8,"N"
1084,"Shanhaiguan Airport","Qinhuangdao","China","SHP","ZBSH",39.9681,119.731,0,8,"N"
1085,"Hebei Handan Airport","Handan","China","HDG","ZBHD",36.524,114.43,0,6,"N"
1086,"Huanghua","Changcha","China","CSX","ZGHA",28.189158,113.219633,217,8,"U"
1087,"Baoan Intl","Shenzhen","China","SZX","ZGSZ",22.639258,113.810664,13,8,"U"
1088,"Meilan","Haikou","China","HAK","ZJHK",19.934856,110.458961,75,8,"U"
1089,"Liangjiang","Guilin","China","KWL","ZGKL",25.218106,110.039197,570,8,"U"
1090,"Wuxu","Nanning","China","NNG","ZGNN",22.608267,108.172442,421,8,"U"
1091,"Changchun","Changchun","China","CGQ","ZYCC",43.5412,125.1201,227,8,"U"
1092,"Beijing Nanyuan Airport","Beijing","China","NAY","ZBBB",39.7825,116.387778,0,8,"U"
1093,"Chifeng Airport","Chifeng","China","CIF","ZBCF",42.235,118.908,0,8,"U"
1094,"Kanas Airport","Burqin","China","KJI","ZWKN",48.221111,86.998056,3900,8,"U"
1095,"Yulin Airport","Yulin","China","UYN","ZLYL",38.2692,109.731,0,8,"U"
1096,"Dunhuang Airport","Dunhuang","China","DNH","ZLDH",40.094,94.4818,3688,8,"U"
1097,"Tengchong Tuofeng Airport","Tengchong","China","TCZ","ZUTC",24.938651,98.483591,5500,8,"N"
1098,"Lincang Airport","Lincang","China","LNJ","ZPLC",23.738333,100.025,1500,8,"U"
1099,"Zhongwei Xiangshan Airport","Zhongwei","China","ZHY","ZLZW",37.5728,105.1544,4305,8,"N"
1100,"Changzhi Airport","Changzhi","China","CIH","ZBCZ",36.2475,113.126,0,8,"U"
1101,"Yushu Batang","Yushu","China","YUS","ZLYS",32.825,97.125,13000,8,"U"
1102,"Huai An Lianshui Airport","Huai An","China","HIA","ZSSH",33.7772,119.1478,23,8,"N"
1103,"Gunsa","Shiquanhe","China","NGQ","ZUAL",32.10027,80.052778,13780,8,"N"
1104,"Huangyan Luqiao Airport","Huangyan","China","HYN","ZSLQ",28.5622,121.429,0,8,"U"
1105,"Lianyungang Airport","Lianyungang","China","LYG","ZSLG",34.55,119.25,0,8,"U"
1106,"Quzhou Airport","Quzhou","China","JUZ","ZSJU",28.9658,118.899,0,8,"U"
1107,"Tunxi International Airport","Huangshan","China","TXN","ZSTX",29.7333,118.256,0,8,"U"
1108,"Luogang","Hefei","China","HFE","ZSOF",31.780019,117.298436,108,8,"U"
1109,"Shubuling Airport","Linyi","China","LYI","ZSLY",35.0461,118.412,0,8,"U"
1110,"Jiujiang Lushan Airport","Jiujiang","China","JIU","ZSJJ",29.733,115.983,0,8,"U"
1111,"Simao Airport","Simao","China","SYM","ZPSM",22.7933,100.959,0,8,"U"
1112,"Mangshi Airport","Luxi","China","LUM","ZPLX",24.4011,98.5317,2890,8,"U"
1113,"Diqing Airport","Shangri-La","China","DIG","ZPDQ",27.7936,99.6772,0,8,"U"
1114,"Jingdezhen Airport","Jingdezhen","China","JDZ","ZSJD",29.3386,117.176,112,8,"U"
1115,"Ganzhou Airport","Ganzhou","China","KOW","ZSGZ",25.8258,114.912,0,8,"U"
1116,"Zhaotong Airport","Zhaotong","China","ZAT","ZPZT",27.3256,103.755,0,8,"U"
1117,"Xining Caojiabu Airport","Xining","China","XNN","ZLXN",36.5275,102.043,0,8,"U"
1118,"Qingyang Airport","Qingyang","China","IQN","ZLQY",35.7997,107.603,0,8,"U"
1119,"Hanzhong Airport","Hanzhong","China","HZG","ZLHZ",33.0636,107.008,0,8,"U"
1120,"Zhuhai Airport","Zhuhai","China","ZUH","ZGSD",22.0064,113.376,0,8,"U"
1121,"Bailian Airport","Liuzhou","China","LZH","ZGZH",24.2075,109.391,295,8,"U"
1122,"Yan'an Airport","Yan'an","China","ENY","ZLYA",36.6369,109.554,0,8,"U"
1123,"Golmud Airport","Golmud","China","GOQ","ZLGM",34.633,98.867,0,8,"U"
1124,"Xiangfan Airport","Xiangfan","China","XFN","ZHXF",32.1506,112.291,0,8,"U"
1125,"Enshi Airport","Enshi","China","ENH","ZHES",30.3203,109.485,0,8,"U"
1126,"Nanyang Airport","Nanyang","China","NNY","ZHNY",32.9808,112.615,0,8,"U"
1127,"Ankang Airport","Ankang","China","AKA","ZLAK",32.7081,108.931,0,8,"U"
1128,"Yichang Airport","Yichang","China","YIH","ZHYC",30.671,111.441,0,8,"U"
1129,"Zhanjiang Airport","Zhanjiang","China","ZHA","ZGZJ",21.2144,110.358,0,8,"U"
1130,"Baotou Airport","Baotou","China","BAV","ZBOW",40.56,109.997,3321,8,"U"
1131,"Shijiazhuang Daguocun International Airport","Shijiazhuang","China","SJW","ZBSJ",38.280686,114.6973,233,8,"U"
1132,"Tongliao Airport","Tongliao","China","TGO","ZBTL",43.5567,122.2,0,8,"U"
1133,"Baoshan Airport","Baoshan","China","BSD","ZPBS",25.053333,99.168333,500,8,"U"
1134,"Datong Airport","Datong","China","DAT","ZBDT",40.0603,113.482,3442,8,"U"
1135,"Baita Airport","Hohhot","China","HET","ZBHH",40.851422,111.824103,3556,8,"U"
1136,"Ulanhot Airport","Ulanhot","China","HLH","ZBUL",46.083,122.017,0,8,"U"
1137,"Changde Airport","Changde","China","CGD","ZGCD",28.9189,111.64,0,8,"U"
1138,"Dayong Airport","Dayong","China","DYG","ZGDY",29.1028,110.443,692,8,"U"
1139,"Meixian Airport","Meixian","China","MXZ","ZGMX",24.35,116.133,0,8,"U"
1140,"Xilinhot Airport","Xilinhot","China","XIL","ZBXH",43.9156,115.964,0,8,"U"
1141,"Beihai Airport","Beihai","China","BHY","ZGBH",21.5394,109.294,0,8,"U"
1142,"Fuyang Airport","Fuyang","China","FUG","ZSFY",32.9,115.816667,500,8,"U"
1143,"Qiemo Airport","Qiemo","China","IQM","ZWCM",38.1494,85.5328,4108,8,"U"
1144,"Aksu Airport","Aksu","China","AKU","ZWAK",41.2625,80.2917,0,8,"U"
1145,"Kuqa Airport","Kuqa","China","KCA","ZWKC",41.7181,82.9869,3524,8,"U"
1146,"Anqing Airport","Anqing","China","AQG","ZSAQ",30.5822,117.0502,0,8,"N"
1147,"Wanxian Airport","Wanxian","China","WXN","ZUWX",30.8361,108.406,0,8,"U"
1148,"Mianyang Airport","Mianyang","China","MIG","ZUMY",31.4281,104.741,0,8,"U"
1149,"Luzhou Airport","Luzhou","China","LZO","ZULZ",28.8522,105.393,0,8,"U"
